cluster,center_lat,center_lon,violation_count,avg_priority,total_priority,peak_hour,peak_day,peak_weekend_frac,peak_hour_frac,top_junction,top_vehicle,resolved_rate,peak_day_name,risk_score,risk_tier,rank,display_name
373,12.966456175812274,77.64154017509026,277,4.182310469314079,1158.5,8,6,0.6606498194945848,0.4548736462093863,"BTP148 - 17th Main, Doopanahalli Bus Stop",CAR,0.0,Sun,8.43,🔴 CRITICAL,1,"17th Main, Doopanahalli Bus Stop"
89,12.953175664120986,77.54226328508774,1671,2.959305804907242,4945.0,20,5,0.4308797127468581,0.3728306403351286,BTP096 - Gali Anjaneya Temple,SCOOTER,0.0,Sat,8.39,🔴 CRITICAL,2,Gali Anjaneya Temple
244,12.91706029368932,77.59615208058253,206,7.808252427184466,1608.5,22,5,0.7135922330097088,0.2961165048543689,"BTP202 - East End Main Road, Jayanagar",CAR,0.0,Sat,8.38,🔴 CRITICAL,3,"East End Main Road, Jayanagar"
64,12.977100818643354,77.57076297861093,1511,3.2905360688285903,4972.0,2,5,0.3130377233620119,0.2726671078755791,BTP048 - Shanthala Junction,PASSENGER AUTO,0.0,Sat,8.36,🔴 CRITICAL,4,Shanthala Junction
142,12.930585793838862,77.60980804407582,211,4.502369668246446,950.0,20,4,0.1848341232227488,0.3981042654028436,BTP140 - Madiwala Check Post,CAR,0.0,Fri,8.28,🔴 CRITICAL,5,Madiwala Check Post
6,13.00845642664574,77.69540603055289,4023,3.8011434253044993,15292.0,19,6,0.3639075316927666,0.596818294804872,No Junction,SCOOTER,0.0,Sun,8.06,🔴 CRITICAL,6,K.R. Pura — Road Segment
625,12.922555712,77.6226444,75,3.02,226.5,19,5,0.6666666666666666,0.96,BTP137 - Madiwala Traffic PS Junction,SCOOTER,0.0,Sat,8.01,🔴 CRITICAL,7,Madiwala Traffic PS Junction
191,12.92007902480262,77.62099891842328,97,3.850515463917526,373.5,8,3,0.3402061855670103,0.5876288659793815,BTP137 - Madiwala Traffic PS Junction,CAR,0.0,Thu,7.98,🔴 CRITICAL,8,Madiwala Traffic PS Junction
307,12.935623175806452,77.60847435322582,62,5.798387096774194,359.5,20,2,0.1290322580645161,0.4354838709677419,BTP136 - Hosur-Tavarkere Road Junction,CAR,0.0,Wed,7.77,🔴 CRITICAL,9,Hosur-Tavarkere Road Junction
343,12.963574302401838,77.6415412276157,195,4.107692307692307,801.0,4,6,0.3692307692307692,0.1897435897435897,"BTP148 - 17th Main, Doopanahalli Bus Stop",CAR,0.0,Sun,7.77,🔴 CRITICAL,10,"17th Main, Doopanahalli Bus Stop"
73,13.06329792463382,77.58955219680426,751,3.2157123834886816,2415.0,7,4,0.2490013315579227,0.6418109187749668,No Junction,CAR,0.0,Fri,7.75,🔴 CRITICAL,11,Kodigehalli — Road Segment
59,12.927465517753625,77.58599906576086,552,3.3442028985507246,1846.0,4,6,0.4257246376811594,0.0942028985507246,"BTP226 - 33rd Cross, 11th Main, Jayanagar",CAR,0.0,Sun,7.75,🔴 CRITICAL,12,"33rd Cross, 11th Main, Jayanagar"
121,13.000350793783474,77.67693095074247,2041,3.8392944634982857,7836.0,19,1,0.1401273885350318,0.368936795688388,No Junction,PASSENGER AUTO,0.0,Tue,7.7,🔴 CRITICAL,13,Mahadevapura — Road Segment
270,12.960322654,77.562641544,50,5.47,273.5,19,3,0.44,0.54,"BTP089 - Police Quarters, Sultan Road",LGV,0.0,Thu,7.7,🔴 CRITICAL,14,"Police Quarters, Sultan Road"
193,12.977458990967742,77.59108022000001,155,2.935483870967742,455.0,20,6,0.6516129032258065,0.3806451612903225,BTP041 - Gopal Gowda Circle,SCOOTER,0.0,Sun,7.68,🔴 CRITICAL,15,Gopal Gowda Circle
229,13.121691096455224,77.6310843669776,268,4.574626865671642,1226.0,19,5,0.3694029850746269,0.582089552238806,No Junction,CAR,0.0,Sat,7.67,🔴 CRITICAL,16,Chikkajala — Road Segment
88,12.99626231577146,77.66856002457625,1966,5.03763987792472,9904.0,4,4,0.2756866734486266,0.2004069175991861,No Junction,PASSENGER AUTO,0.0,Fri,7.62,🔴 CRITICAL,17,Mahadevapura — Road Segment
92,13.191256831315508,77.64623337951872,935,3.806951871657754,3559.5,20,6,0.3550802139037433,0.3957219251336898,No Junction,CAR,0.0,Sun,7.61,🔴 CRITICAL,18,Chikkajala — Road Segment
155,12.988668436589052,77.55016418392562,647,2.839258114374034,1837.0,4,1,0.3153013910355486,0.1128284389489953,"BTP170 - Dr. Bheem Rao Palace, Chord Road",CAR,0.0,Tue,7.58,🔴 CRITICAL,19,"Dr. Bheem Rao Palace, Chord Road"
36,12.95947365638298,77.57708121297054,2444,2.4034369885433717,5874.0,6,2,0.3269230769230769,0.2205400981996726,BTP104 - Medical College Circle,SCOOTER,0.0,Wed,7.57,🔴 CRITICAL,20,Medical College Circle
1,12.972560405757417,77.57758053136375,55527,2.3481189331316297,130384.0,3,6,0.3278225007653934,0.2211176544743998,BTP082 - KR Market Junction,SCOOTER,0.0,Sun,7.55,🔴 CRITICAL,21,KR Market Junction
23,13.185397450105649,77.68001840500862,4638,3.2028891763691245,14855.0,23,4,0.2813712807244501,0.340017248814144,No Junction,CAR,0.0,Fri,7.54,🔴 CRITICAL,22,Chikkajala — Road Segment
17,12.841908540358864,77.64580244145084,1964,2.689663951120163,5282.5,7,6,0.4562118126272912,0.6206720977596741,No Junction,SCOOTER,0.0,Sun,7.53,🔴 CRITICAL,23,Electronic City — Road Segment
35,12.983591252232417,77.60355235222792,5426,2.388407666789532,12959.5,4,6,0.342056763730188,0.1795060818282344,BTP211 - Central Street Junction,PASSENGER AUTO,0.0,Sun,7.52,🔴 CRITICAL,24,Central Street Junction
102,12.935692348083624,77.61580879102787,1148,2.436411149825784,2797.0,4,6,0.4172473867595819,0.2099303135888501,BTP135 - UCO Bank Junction,SCOOTER,0.0,Sun,7.51,🔴 CRITICAL,25,UCO Bank Junction
287,12.934314786734694,77.61256878775511,98,3.306122448979592,324.0,5,5,0.6224489795918368,0.336734693877551,BTP135 - UCO Bank Junction,CAR,0.0,Sat,7.5,🔴 CRITICAL,26,UCO Bank Junction
364,12.970565333695072,77.64663244968831,946,4.193974630021142,3967.5,2,6,0.5507399577167019,0.2822410147991543,No Junction,CAR,0.0,Sun,7.49,🔴 CRITICAL,27,Jeevanbheemanagar — Road Segment
440,12.967945916279067,77.59237445581395,43,4.523255813953488,194.5,17,6,0.6976744186046512,0.6744186046511628,BTP203 - RRMR Junction,SCOOTER,0.0,Sun,7.48,🔴 CRITICAL,28,RRMR Junction
86,12.906535253380037,77.62995046068207,1153,3.0013009540329576,3460.5,7,1,0.3321769297484822,0.4310494362532523,No Junction,SCOOTER,0.0,Tue,7.47,🔴 CRITICAL,29,HSR Layout — Road Segment
194,12.980726698474536,77.55820899319681,462,2.6201298701298703,1210.5,23,1,0.29004329004329,0.1688311688311688,BTP010 - Rajajinagar Entrance,SCOOTER,0.0,Tue,7.46,🔴 CRITICAL,30,Rajajinagar Entrance
41,12.99315586984428,77.55347891502498,1410,2.346099290780142,3308.0,21,2,0.2489361702127659,0.2099290780141844,"BTP011 - RR Kalyana Mantapa, Dr. Rajkumar Road",CAR,0.0,Wed,7.39,🔴 CRITICAL,31,"RR Kalyana Mantapa, Dr. Rajkumar Road"
697,12.935512393333331,77.61164169733334,75,3.6533333333333338,274.0,6,0,0.4266666666666667,0.32,BTP135 - UCO Bank Junction,SCOOTER,0.0,Mon,7.37,🔴 CRITICAL,32,UCO Bank Junction
245,12.951419125192766,77.71749728764328,385,5.244155844155844,2019.0,3,3,0.2623376623376623,0.2337662337662337,No Junction,SCOOTER,0.0,Thu,7.37,🔴 CRITICAL,33,Whitefield — Road Segment
77,12.988080997306009,77.53757522537241,800,2.445,1956.0,5,5,0.29,0.17375,BTP208 - Havanur Circle,CAR,0.0,Sat,7.37,🔴 CRITICAL,34,Havanur Circle
72,12.950257254922825,77.69969314995544,1357,4.37656595431098,5939.0,22,0,0.1201179071481208,0.1753868828297715,No Junction,CAR,0.0,Mon,7.35,🔴 CRITICAL,35,HAL Old Airport — Road Segment
558,13.030008816883116,77.53821091948052,77,4.590909090909091,353.5,19,6,0.4025974025974026,0.8961038961038961,No Junction,PASSENGER AUTO,0.0,Sun,7.34,🔴 CRITICAL,36,Yeshwanthpura — Road Segment
452,12.972264065454546,77.59389987454546,55,2.8545454545454545,157.0,20,5,0.4181818181818181,0.6909090909090909,BTP063 - Siddalingaiah Circle,SCOOTER,0.0,Sat,7.33,🔴 CRITICAL,37,Siddalingaiah Circle
189,12.92520081423494,77.61895558249483,533,2.331144465290807,1242.5,4,0,0.1894934333958724,0.298311444652908,BTP137 - Madiwala Traffic PS Junction,CAR,0.0,Mon,7.31,🔴 CRITICAL,38,Madiwala Traffic PS Junction
124,13.097109692143809,77.59949983075899,751,2.631824234354194,1976.5,20,1,0.2503328894806924,0.5752330226364847,No Junction,SCOOTER,0.0,Tue,7.28,🔴 CRITICAL,39,Yelahanka — Road Segment
68,12.987605522146508,77.7346803528109,587,6.887563884156729,4043.0,6,1,0.059625212947189,0.1090289608177172,No Junction,MOTOR CYCLE,0.0,Tue,7.28,🔴 CRITICAL,40,Mahadevapura — Road Segment
112,12.94409996898337,77.57109654639922,1964,2.324338085539715,4565.0,5,6,0.3177189409368635,0.1705702647657841,BTP108 - Tagore Park Junction,SCOOTER,0.0,Sun,7.27,🔴 CRITICAL,41,Tagore Park Junction
21,12.892371388881967,77.63772989895978,780,2.741025641025641,2138.0,20,2,0.2564102564102564,0.4769230769230769,No Junction,CAR,0.0,Wed,7.25,🔴 CRITICAL,42,Hulimavu — Road Segment
20,12.995512193869844,77.69580960836826,1360,3.580514705882353,4869.5,5,6,0.6772058823529412,0.175,No Junction,PASSENGER AUTO,0.0,Sun,7.2,🔴 CRITICAL,43,Mahadevapura — Road Segment
8,12.91248429199305,77.63472577393155,1122,2.5463458110516934,2857.0,8,6,0.4090909090909091,0.535650623885918,No Junction,SCOOTER,0.0,Sun,7.19,🔴 CRITICAL,44,HSR Layout — Road Segment
175,12.972012915537816,77.6070674286342,1250,2.88,3600.0,6,6,0.356,0.3072,No Junction,SCOOTER,0.0,Sun,7.19,🔴 CRITICAL,45,Ashok Nagar — Road Segment
195,12.97684080888031,77.58908344362933,259,2.4382239382239383,631.5,21,6,0.7374517374517374,0.2548262548262548,BTP041 - Gopal Gowda Circle,CAR,0.0,Sun,7.19,🔴 CRITICAL,46,Gopal Gowda Circle
306,12.951771648496972,77.57692350341176,85,2.6,221.0,8,6,0.5764705882352941,0.4941176470588235,BTP106 - VV Puram College,CAR,0.0,Sun,7.19,🔴 CRITICAL,47,VV Puram College
0,12.957303344537817,77.51880455294118,476,3.273109243697479,1558.0,6,3,0.3571428571428571,0.3172268907563025,No Junction,SCOOTER,0.0,Thu,7.18,🔴 CRITICAL,48,Byatarayanapura — Road Segment
15,13.005707236823016,77.68581993923993,1303,2.7659247889485803,3604.0,5,1,0.261703760552571,0.3484267075978511,No Junction,CAR,0.0,Tue,7.18,🔴 CRITICAL,49,K.R. Pura — Road Segment
2,12.981558435246344,77.60910060846768,18695,2.271730409200321,42470.0,5,6,0.4052955335651244,0.1423910136400107,BTP051 - Safina Plaza Junction,SCOOTER,0.0,Sun,7.16,🔴 CRITICAL,50,Safina Plaza Junction
337,13.028928651037276,77.53972283145647,203,4.275862068965517,868.0,20,5,0.3793103448275862,0.3694581280788177,No Junction,CAR,0.0,Sat,7.16,🔴 CRITICAL,51,Yeshwanthpura — Road Segment
256,12.955739512371132,77.5460951742268,97,3.2731958762886597,317.5,22,0,0.1649484536082474,0.1752577319587628,"BTP094 - Sri Skanda Complex, Mysore Road",CAR,0.0,Mon,7.15,🔴 CRITICAL,52,"Sri Skanda Complex, Mysore Road"
226,12.936554223913044,77.6059196673913,138,3.072463768115942,424.0,22,5,0.3695652173913043,0.1159420289855072,BTP126 - Dairy Circle,CAR,0.0,Sat,7.14,🔴 CRITICAL,53,Dairy Circle
423,12.96121301654676,77.58675334892087,139,2.449640287769784,340.5,20,1,0.3669064748201439,0.3741007194244604,BTP180 - Swagath Poornima Theatre,TEMPO,0.0,Tue,7.13,🔴 CRITICAL,54,Swagath Poornima Theatre
16,12.939198529631184,77.69653662461724,2309,4.361195322650498,10070.0,3,3,0.2200086617583369,0.0762234733650931,No Junction,CAR,0.0,Thu,7.12,🔴 CRITICAL,55,HAL Old Airport — Road Segment
51,12.93682762894737,77.60173891947369,190,3.5657894736842106,677.5,1,5,0.3631578947368421,0.0263157894736842,BTP126 - Dairy Circle,SCOOTER,0.0,Sat,7.1,🔴 CRITICAL,56,Dairy Circle
101,12.97994888064784,77.55458038636904,294,2.5391156462585034,746.5,5,2,0.2482993197278911,0.1292517006802721,"BTP062 - Basava Mantapa, Dr. Rajkumar Road",CAR,0.0,Wed,7.08,🔴 CRITICAL,57,"Basava Mantapa, Dr. Rajkumar Road"
222,12.97140396851725,77.71199811215577,643,3.1329704510108867,2014.5,22,0,0.2939346811819596,0.2472783825816485,No Junction,CAR,0.0,Mon,7.06,🔴 CRITICAL,58,HAL Old Airport — Road Segment
115,12.97913683234054,77.69512565455952,450,5.24,2358.0,22,3,0.0955555555555555,0.0911111111111111,No Junction,MAXI-CAB,0.0,Thu,7.06,🔴 CRITICAL,59,Mahadevapura — Road Segment
84,12.906885910118156,77.54607518433065,109,4.486238532110092,489.0,7,6,0.4403669724770642,0.4770642201834862,No Junction,CAR,0.0,Sun,7.04,🔴 CRITICAL,60,K.S. Layout — Road Segment
348,13.015297172930415,77.55513743564664,171,4.7894736842105265,819.0,5,4,0.1871345029239766,0.2690058479532163,No Junction,CAR,0.0,Fri,7.03,🔴 CRITICAL,61,Malleshwaram — Road Segment
75,12.973615668124324,77.55106154434405,2767,2.2343693530899893,6182.5,6,0,0.3108059269967473,0.1470907119624141,"BTP070 - Cholurpalya Junction, Magadi Road",SCOOTER,0.0,Mon,7.02,🔴 CRITICAL,62,"Cholurpalya Junction, Magadi Road"
217,12.911335077083336,77.57309525833334,96,2.5572916666666665,245.5,21,5,0.4270833333333333,0.3645833333333333,"BTP117 - 9th Cross, Kanakapura Road",SCOOTER,0.0,Sat,7.01,🔴 CRITICAL,63,"9th Cross, Kanakapura Road"
589,12.958021793636364,77.56735131272728,110,4.6,506.0,5,1,0.3909090909090909,0.0181818181818181,BTP214 - 5th Main Chamrajpet  Junction,SCOOTER,0.0,Tue,6.97,🟠 HIGH,64,5th Main Chamrajpet  Junction
119,12.818434292957743,77.68920089788733,142,4.482394366197183,636.5,20,4,0.0774647887323943,0.323943661971831,No Junction,MOTOR CYCLE,0.0,Fri,6.95,🟠 HIGH,65,Electronic City — Road Segment
291,13.000025776996198,77.61105894676807,526,2.9020912547528517,1526.5,6,5,0.344106463878327,0.2680608365019011,No Junction,SCOOTER,0.0,Sat,6.93,🟠 HIGH,66,Pulikeshinagar(F.Town) — Road Segment
687,12.926975873170733,77.59704115853658,41,9.353658536585366,383.5,22,4,0.1707317073170731,0.1707317073170731,"BTP127 - Sagar Hospital, Jayanagar",CAR,0.0,Fri,6.92,🟠 HIGH,67,"Sagar Hospital, Jayanagar"
323,12.840662598172491,77.67678090771253,341,3.398826979472141,1159.0,4,0,0.1788856304985337,0.2228739002932551,No Junction,SCOOTER,0.0,Mon,6.92,🟠 HIGH,68,Electronic City — Road Segment
55,12.993667412287104,77.6626508796837,822,2.4610705596107056,2023.0,9,0,0.3017031630170316,0.4574209245742092,No Junction,SCOOTER,0.0,Mon,6.92,🟠 HIGH,69,Banaswadi — Road Segment
91,12.96439433296,77.55489120864,625,3.1336,1958.5,21,2,0.2384,0.1808,No Junction,SCOOTER,0.0,Wed,6.91,🟠 HIGH,70,Magadi Road — Road Segment
205,13.022494129013008,77.63795700911767,147,2.707482993197279,398.0,7,0,0.3945578231292517,0.7074829931972789,No Junction,SCOOTER,0.0,Mon,6.91,🟠 HIGH,71,Banaswadi — Road Segment
162,13.030656366762765,77.53633979950183,515,3.2514563106796115,1674.5,3,5,0.3728155339805825,0.1689320388349514,No Junction,MOTOR CYCLE,0.0,Sat,6.89,🟠 HIGH,72,Yeshwanthpura — Road Segment
150,12.991840556547618,77.53841092619048,168,2.431547619047619,408.5,5,4,0.238095238095238,0.1904761904761904,BTP207 - 8th Main Road Basaveshwara Nagar,CAR,0.0,Fri,6.85,🟠 HIGH,73,8th Main Road Basaveshwara Nagar
172,13.058286945879717,77.591531198288,137,2.791970802919708,382.5,7,1,0.2992700729927007,0.6277372262773723,No Junction,CAR,0.0,Tue,6.84,🟠 HIGH,74,Kodigehalli — Road Segment
434,12.974203763829786,77.56624664468086,47,2.925531914893617,137.5,20,5,0.4893617021276595,0.425531914893617,BTP074 - Leprosy Hospital Junction,SCOOTER,0.0,Sat,6.83,🟠 HIGH,75,Leprosy Hospital Junction
160,12.87050192832764,77.65455591264092,394,2.6434010152284264,1041.5,7,4,0.2309644670050761,0.3857868020304568,No Junction,SCOOTER,0.0,Fri,6.82,🟠 HIGH,76,Electronic City — Road Segment
10,12.933166445279118,77.69001657925574,9250,3.228594594594594,29864.5,22,2,0.087027027027027,0.0418378378378378,No Junction,SCOOTER,0.0,Wed,6.81,🟠 HIGH,77,HAL Old Airport — Road Segment
431,12.927061289050052,77.69483485443422,184,5.095108695652174,937.5,23,1,0.0543478260869565,0.125,No Junction,CAR,0.0,Tue,6.81,🟠 HIGH,78,Bellandur — Road Segment
111,13.007965879892762,77.52674327426273,373,3.764075067024129,1404.0,5,0,0.2466487935656836,0.1340482573726541,No Junction,CAR,0.0,Mon,6.8,🟠 HIGH,79,Rajajinagar — Road Segment
3,12.995898332598609,77.61378794118329,862,2.4129930394431556,2080.0,7,5,0.308584686774942,0.4129930394431554,No Junction,SCOOTER,0.0,Sat,6.79,🟠 HIGH,80,Pulikeshinagar(F.Town) — Road Segment
7,12.994618270388347,77.61544200728156,206,3.3179611650485437,683.5,6,1,0.1650485436893204,0.2621359223300971,No Junction,CAR,0.0,Tue,6.79,🟠 HIGH,81,Pulikeshinagar(F.Town) — Road Segment
181,12.957955521428572,77.58182559955357,224,2.408482142857143,539.5,2,4,0.2678571428571428,0.125,BTP167 - JC Road Junction,SCOOTER,0.0,Fri,6.78,🟠 HIGH,82,JC Road Junction
298,12.909656083995646,77.55010167321035,87,4.971264367816092,432.5,5,4,0.2758620689655172,0.3448275862068966,No Junction,CAR,0.0,Fri,6.78,🟠 HIGH,83,K.S. Layout — Road Segment
179,12.936293905635903,77.6923795833133,720,3.548611111111111,2555.0,22,1,0.0347222222222222,0.0791666666666666,No Junction,PASSENGER AUTO,0.0,Tue,6.78,🟠 HIGH,84,HAL Old Airport — Road Segment
171,12.972224361211667,77.53781395938286,831,2.209987966305656,1836.5,4,3,0.2623345367027677,0.1407942238267148,BTP028 - Vijayanagar Bus Stand Junction,SCOOTER,0.0,Thu,6.75,🟠 HIGH,85,Vijayanagar Bus Stand Junction
76,12.926669330935251,77.60895103741008,139,4.841726618705036,673.0,21,1,0.1079136690647482,0.1870503597122302,No Junction,MAXI-CAB,0.0,Tue,6.75,🟠 HIGH,86,Mico Layout — Road Segment
30,12.966062803544334,77.53772806020386,3689,2.197072377338032,8105.0,5,5,0.3494171862293304,0.0970452697207915,"BTP016 - 5th Main Road, RPC Layout",SCOOTER,0.0,Sat,6.74,🟠 HIGH,87,"5th Main Road, RPC Layout"
327,13.04002144208633,77.51859118093526,278,3.028776978417266,842.0,6,6,0.3920863309352518,0.2194244604316546,No Junction,PASSENGER AUTO,0.0,Sun,6.73,🟠 HIGH,88,Peenya — Road Segment
27,12.95779126381198,77.70159372289955,1769,2.7543810062182024,4872.5,5,4,0.3007348784624081,0.1226681741096664,No Junction,SCOOTER,0.0,Fri,6.72,🟠 HIGH,89,HAL Old Airport — Road Segment
388,12.960405383333333,77.57992357142857,42,2.619047619047619,110.0,20,5,0.3571428571428571,0.6190476190476191,BTP167 - JC Road Junction,PASSENGER AUTO,0.0,Sat,6.71,🟠 HIGH,90,JC Road Junction
258,13.045835333653846,77.75033385673076,208,3.7475961538461537,779.5,6,1,0.3317307692307692,0.1778846153846154,No Junction,CAR,0.0,Tue,6.7,🟠 HIGH,91,K.R. Pura — Road Segment
480,13.018973489361702,77.55335202553192,47,4.468085106382978,210.0,19,5,0.3404255319148936,0.7659574468085106,No Junction,PASSENGER AUTO,0.0,Sat,6.7,🟠 HIGH,92,Yeshwanthpura — Road Segment
151,13.0338768389333,77.55783476877741,276,4.105072463768116,1133.0,22,1,0.3043478260869565,0.1014492753623188,No Junction,SCOOTER,0.0,Tue,6.69,🟠 HIGH,93,Yeshwanthpura — Road Segment
80,12.982515486226417,77.54896199849057,530,2.250943396226415,1193.0,1,6,0.4566037735849056,0.1037735849056603,"BTP024 - NPS, Vijayanagar",CAR,0.0,Sun,6.67,🟠 HIGH,94,"NPS, Vijayanagar"
475,13.144218675,77.61785262142857,84,2.9642857142857144,249.0,19,1,0.1666666666666666,0.6309523809523809,No Junction,MOTOR CYCLE,0.0,Tue,6.67,🟠 HIGH,95,Chikkajala — Road Segment
71,13.01797126342282,77.53159667567114,596,2.9916107382550337,1783.0,6,2,0.2348993288590604,0.1124161073825503,No Junction,CAR,0.0,Wed,6.66,🟠 HIGH,96,Rajajinagar — Road Segment
146,12.960960662168144,77.51170086725664,452,2.5553097345132745,1155.0,6,6,0.336283185840708,0.3119469026548672,No Junction,CAR,0.0,Sun,6.65,🟠 HIGH,97,Jnanabharathi — Road Segment
138,12.961146992045457,77.58385787045455,88,2.488636363636364,219.0,6,5,0.3181818181818182,0.25,"BTP168 - MSR Building, JC Road",SCOOTER,0.0,Sat,6.65,🟠 HIGH,98,"MSR Building, JC Road"
199,13.050007488840262,77.59311085536105,457,2.647702407002188,1210.0,21,1,0.2297592997811816,0.2428884026258205,No Junction,CAR,0.0,Tue,6.64,🟠 HIGH,99,Kodigehalli — Road Segment
277,12.939414986329115,77.58399073392405,395,2.2,869.0,21,6,0.5164556962025316,0.2,"BTP186 - 9th Cross, 4th Main, Jayanagar",SCOOTER,0.0,Sun,6.64,🟠 HIGH,100,"9th Cross, 4th Main, Jayanagar"
574,12.968528748614498,77.64989446949056,118,5.046610169491525,595.5,21,4,0.3644067796610169,0.1440677966101695,No Junction,CAR,0.0,Fri,6.64,🟠 HIGH,101,Jeevanbheemanagar — Road Segment
496,13.048919969014085,77.49699119765259,71,5.788732394366197,411.0,5,0,0.2676056338028169,0.2957746478873239,No Junction,CAR,0.0,Mon,6.64,🟠 HIGH,102,Chikkabanavara — Road Segment
182,13.011020938775513,77.58360971632654,49,2.938775510204082,144.0,6,6,0.3673469387755102,0.2653061224489796,BTP030 - Mekhri Circle,CAR,0.0,Sun,6.63,🟠 HIGH,103,Mekhri Circle
225,12.917375997315435,77.57795471275168,149,2.5604026845637584,381.5,23,3,0.2013422818791946,0.0671140939597315,"BTP176 - Rajalakshmi Kalyana Mantapa, JP Nagar",CAR,0.0,Thu,6.61,🟠 HIGH,104,"Rajalakshmi Kalyana Mantapa, JP Nagar"
726,12.950498795833331,77.52209597777778,72,4.916666666666667,354.0,2,0,0.3888888888888889,0.3333333333333333,No Junction,CAR,0.0,Mon,6.6,🟠 HIGH,105,Byatarayanapura — Road Segment
653,12.911520006545905,77.55213208172842,52,5.951923076923077,309.5,6,5,0.5961538461538461,0.4038461538461538,No Junction,BUS (BMTC/KSRTC),0.0,Sat,6.59,🟠 HIGH,106,K.S. Layout — Road Segment
295,12.978167699443269,77.63928629412409,340,3.961764705882353,1347.0,4,4,0.1911764705882352,0.0617647058823529,No Junction,SCOOTER,0.0,Fri,6.58,🟠 HIGH,107,Jeevanbheemanagar — Road Segment
437,12.989707743181818,77.55602293522728,88,2.340909090909091,206.0,7,0,0.3863636363636363,0.3409090909090909,"BTP204 - ESI Hospital, Rajajinagar",SCOOTER,0.0,Mon,6.57,🟠 HIGH,108,"ESI Hospital, Rajajinagar"
208,12.971741106618076,77.6581009087947,1217,2.5357436318816764,3086.0,1,3,0.238290879211175,0.1741988496302383,No Junction,SCOOTER,0.0,Thu,6.56,🟠 HIGH,109,Jeevanbheemanagar — Road Segment
633,12.942322563636363,77.54839966969696,33,5.636363636363637,186.0,7,0,0.1818181818181818,0.8484848484848485,No Junction,SCOOTER,0.0,Mon,6.56,🟠 HIGH,110,Banashankari — Road Segment
94,12.916981454597815,77.67296045357143,210,3.138095238095238,659.0,5,2,0.2285714285714285,0.1666666666666666,No Junction,MOTOR CYCLE,0.0,Wed,6.52,🟠 HIGH,111,Bellandur — Road Segment
49,12.912314260167,77.6257646301793,379,2.494722955145119,945.5,6,3,0.2401055408970976,0.3271767810026385,No Junction,CAR,0.0,Thu,6.51,🟠 HIGH,112,HSR Layout — Road Segment
18,12.992640398691904,77.58887211505414,2790,2.1302867383512543,5943.5,22,1,0.1229390681003584,0.1103942652329749,BTP032 - Windsor Circle,SCOOTER,0.0,Tue,6.5,🟠 HIGH,113,Windsor Circle
45,12.926739510559004,77.55080284906832,322,2.3152173913043477,745.5,4,2,0.1645962732919254,0.0590062111801242,BTP155 - Katriguppe Junction,SCOOTER,0.0,Wed,6.49,🟠 HIGH,114,Katriguppe Junction
40,12.94362894214128,77.69760996264661,512,3.595703125,1841.0,0,2,0.06640625,0.029296875,No Junction,CAR,0.0,Wed,6.48,🟠 HIGH,115,HAL Old Airport — Road Segment
381,12.963681326043924,77.73308956817438,93,5.096774193548387,474.0,4,5,0.6559139784946236,0.1505376344086021,No Junction,CAR,0.0,Sat,6.46,🟠 HIGH,116,Whitefield — Road Segment
134,13.04711159308176,77.50101517672957,159,2.874213836477987,457.0,22,2,0.1257861635220125,0.270440251572327,No Junction,SCOOTER,0.0,Wed,6.46,🟠 HIGH,117,Peenya — Road Segment
218,12.910905418181818,77.57826014242424,33,2.696969696969697,89.0,19,5,0.4848484848484848,0.6060606060606061,BTP196 - Sarakki Main Road,MOTOR CYCLE,0.0,Sat,6.44,🟠 HIGH,118,Sarakki Main Road
60,12.937186932243607,77.58496069902392,401,2.4276807980049875,973.5,1,6,0.3466334164588528,0.3241895261845386,No Junction,SCOOTER,0.0,Sun,6.44,🟠 HIGH,119,Wilson Garden — Road Segment
455,12.981262778840392,77.64070497952692,45,6.088888888888889,274.0,20,6,0.5333333333333333,0.4222222222222222,No Junction,CAR,0.0,Sun,6.43,🟠 HIGH,120,Jeevanbheemanagar — Road Segment
183,12.990117613751991,77.5036200704,150,2.963333333333334,444.5,6,4,0.2533333333333333,0.24,No Junction,CAR,0.0,Fri,6.43,🟠 HIGH,121,Kamakshipalya — Road Segment
9,12.899685732718794,77.67546777671959,596,2.3523489932885906,1402.0,5,6,0.4312080536912752,0.3171140939597315,No Junction,CAR,0.0,Sun,6.42,🟠 HIGH,122,Bellandur — Road Segment
54,12.983769265836289,77.57765602863779,434,2.192396313364055,951.5,2,1,0.315668202764977,0.1105990783410138,BTP054 - Shivananda Circle,CAR,0.0,Tue,6.41,🟠 HIGH,123,Shivananda Circle
402,12.93238289715994,77.63170668026906,669,2.4424514200298955,1634.0,21,4,0.358744394618834,0.210762331838565,No Junction,CAR,0.0,Fri,6.4,🟠 HIGH,124,Adugodi — Road Segment
29,12.971372562663756,77.59752767598253,916,2.179585152838428,1996.5,5,3,0.2674672489082969,0.0644104803493449,BTP063 - Siddalingaiah Circle,CAR,0.0,Thu,6.4,🟠 HIGH,125,Siddalingaiah Circle
113,12.912285567272727,77.58571622545455,110,2.4727272727272727,272.0,6,3,0.3545454545454545,0.0909090909090909,"BTP197 - 9th Cross, 24th Main, JP Nagar",CAR,0.0,Thu,6.39,🟠 HIGH,126,"9th Cross, 24th Main, JP Nagar"
4,12.999115306550756,77.54923401529413,9673,2.1310348392432545,20613.5,2,1,0.2718908301457666,0.0630621317068127,BTP027 - Modi Bridge Junction,SCOOTER,0.0,Tue,6.39,🟠 HIGH,127,Modi Bridge Junction
123,12.930916523224044,77.60661613442622,366,2.4439890710382515,894.5,21,4,0.2021857923497267,0.3005464480874317,No Junction,SCOOTER,0.0,Fri,6.38,🟠 HIGH,128,Mico Layout — Road Segment
799,12.910710676923078,77.58075581153847,26,2.8076923076923075,73.0,19,5,0.8076923076923077,0.8076923076923077,BTP196 - Sarakki Main Road,CAR,0.0,Sat,6.38,🟠 HIGH,129,Sarakki Main Road
538,12.92004863220339,77.61039011016949,59,2.3728813559322033,140.0,8,2,0.3220338983050847,0.3728813559322034,"BTP163 - 16th Main Road, BTM Layout",SCOOTER,0.0,Wed,6.37,🟠 HIGH,130,"16th Main Road, BTM Layout"
546,13.050053613636363,77.63021110227272,44,2.9318181818181817,129.0,10,1,0.0909090909090909,0.9318181818181818,No Junction,MOTOR CYCLE,0.0,Tue,6.36,🟠 HIGH,131,Hennuru — Road Segment
661,13.0059965875,77.620648321875,32,5.234375,167.5,18,3,0.0,0.75,No Junction,SCOOTER,0.0,Thu,6.36,🟠 HIGH,132,Pulikeshinagar(F.Town) — Road Segment
96,12.917230879054989,77.57354585767695,443,2.195259593679458,972.5,22,2,0.2121896162528216,0.0880361173814898,"BTP115 - Sahasra Hospital, Jayanagar",SCOOTER,0.0,Wed,6.36,🟠 HIGH,133,"Sahasra Hospital, Jayanagar"
198,13.018812671633246,77.55789879539674,347,2.7593659942363113,957.5,2,1,0.2651296829971181,0.1268011527377521,No Junction,CAR,0.0,Tue,6.35,🟠 HIGH,134,Yeshwanthpura — Road Segment
283,12.907428370506912,77.60045970414745,217,2.2649769585253456,491.5,5,0,0.3640552995391705,0.0921658986175115,BTP130 - GD Mara Junction,SCOOTER,0.0,Mon,6.35,🟠 HIGH,135,GD Mara Junction
387,12.946259441489362,77.5880004787234,94,2.7127659574468086,255.0,21,6,0.5425531914893617,0.4893617021276595,No Junction,SCOOTER,0.0,Sun,6.35,🟠 HIGH,136,Wilson Garden — Road Segment
70,12.97437206167331,77.5456969534594,4751,2.135760892443696,10147.0,23,1,0.1342875184171753,0.046727004841086,BTP020 - Hosahalli Metro Station,SCOOTER,0.0,Tue,6.34,🟠 HIGH,137,Hosahalli Metro Station
83,12.959838562833236,77.64904906266521,450,2.787777777777778,1254.5,3,3,0.2622222222222222,0.0844444444444444,No Junction,PASSENGER AUTO,0.0,Thu,6.34,🟠 HIGH,138,Jeevanbheemanagar — Road Segment
53,12.996473154252584,77.58447035539703,269,2.3048327137546467,620.0,4,2,0.3159851301115242,0.0408921933085501,BTP032 - Windsor Circle,CAR,0.0,Wed,6.34,🟠 HIGH,139,Windsor Circle
31,12.911669374934036,77.63810695580474,758,2.3021108179419527,1745.0,6,5,0.3509234828496042,0.2902374670184696,No Junction,SCOOTER,0.0,Sat,6.31,🟠 HIGH,140,HSR Layout — Road Segment
159,12.975195880842396,77.6202301925483,224,3.205357142857143,718.0,23,6,0.4910714285714285,0.0714285714285714,No Junction,CAR,0.0,Sun,6.31,🟠 HIGH,141,Halasur — Road Segment
118,12.955038028198434,77.58559493028721,383,2.1592689295039165,827.0,21,6,0.4621409921671018,0.1357702349869451,BTP192 - Urvashi Theater,CAR,0.0,Sun,6.29,🟠 HIGH,142,Urvashi Theater
167,12.948928762184874,77.59784768991597,119,2.2184873949579833,264.0,3,3,0.226890756302521,0.2184873949579832,"BTP123 - 10th Cross, Wilson Garden",CAR,0.0,Thu,6.28,🟠 HIGH,143,"10th Cross, Wilson Garden"
79,12.978242164044945,77.62865273932584,178,5.337078651685394,950.0,3,2,0.348314606741573,0.0056179775280898,No Junction,MOTOR CYCLE,0.0,Wed,6.28,🟠 HIGH,144,Jeevanbheemanagar — Road Segment
126,12.982427547367813,77.56302792126392,232,2.1918103448275863,508.5,6,4,0.3836206896551724,0.1379310344827586,BTP010 - Rajajinagar Entrance,PASSENGER AUTO,0.0,Fri,6.28,🟠 HIGH,145,Rajajinagar Entrance
57,13.04750064117647,77.57588019338235,952,2.2762605042016806,2167.0,20,5,0.282563025210084,0.2668067226890756,No Junction,MOTOR CYCLE,0.0,Sat,6.27,🟠 HIGH,146,Kodigehalli — Road Segment
128,13.083454865714286,77.63828871428572,35,4.414285714285715,154.5,8,2,0.4,0.7428571428571429,No Junction,SCOOTER,0.0,Wed,6.27,🟠 HIGH,147,Hennuru — Road Segment
168,12.876400798275862,77.59543959525863,232,2.3793103448275863,552.0,7,0,0.2629310344827586,0.3706896551724138,No Junction,SCOOTER,0.0,Mon,6.27,🟠 HIGH,148,Hulimavu — Road Segment
69,12.97160179661017,77.50759296949153,118,3.6186440677966103,427.0,5,4,0.2372881355932203,0.1186440677966101,No Junction,CAR,0.0,Fri,6.26,🟠 HIGH,149,Jnanabharathi — Road Segment
293,12.95158401372549,77.60761836470589,102,2.2745098039215685,232.0,4,1,0.1862745098039215,0.196078431372549,BTP132 - Anepalya Junction,CAR,0.0,Tue,6.24,🟠 HIGH,150,Anepalya Junction
435,12.940613014925374,77.52467731119404,134,2.578358208955224,345.5,5,0,0.2388059701492537,0.3507462686567164,No Junction,SCOOTER,0.0,Mon,6.24,🟠 HIGH,151,Byatarayanapura — Road Segment
334,12.94441678,77.52692113636364,55,2.709090909090909,149.0,21,2,0.0545454545454545,0.1272727272727272,BTP098 - Nayandahalli Junction,MAXI-CAB,0.0,Wed,6.24,🟠 HIGH,152,Nayandahalli Junction
14,12.969737573720368,77.64021717511851,884,2.4055429864253393,2126.5,2,5,0.4049773755656108,0.1391402714932126,No Junction,CAR,0.0,Sat,6.24,🟠 HIGH,153,Jeevanbheemanagar — Road Segment
667,12.92488553137255,77.69485499019608,51,5.294117647058823,270.0,23,1,0.0784313725490196,0.2352941176470588,No Junction,CAR,0.0,Tue,6.22,🟠 HIGH,154,Bellandur — Road Segment
294,12.935901875,77.51794080740741,324,2.433641975308642,788.5,5,6,0.3734567901234568,0.2314814814814814,No Junction,SCOOTER,0.0,Sun,6.21,🟠 HIGH,155,Byatarayanapura — Road Segment
216,12.91551595319149,77.57352253191489,47,2.425531914893617,114.0,21,4,0.2553191489361702,0.3617021276595745,"BTP117 - 9th Cross, Kanakapura Road",SCOOTER,0.0,Fri,6.21,🟠 HIGH,156,"9th Cross, Kanakapura Road"
109,13.004425265506963,77.55350434000145,155,2.338709677419355,362.5,1,6,0.567741935483871,0.0516129032258064,"BTP001 - 10th Cross, Dr. Rajkumar Road",SCOOTER,0.0,Sun,6.2,🟠 HIGH,157,"10th Cross, Dr. Rajkumar Road"
628,12.935502314285715,77.60759420857143,35,3.371428571428571,118.0,21,3,0.0,0.1714285714285714,BTP136 - Hosur-Tavarkere Road Junction,SCOOTER,0.0,Thu,6.19,🟠 HIGH,158,Hosur-Tavarkere Road Junction
238,13.003459367132868,77.72349133216782,143,5.034965034965035,720.0,22,1,0.2307692307692307,0.0139860139860139,No Junction,SCOOTER,0.0,Tue,6.18,🟠 HIGH,159,K.R. Pura — Road Segment
484,12.956347076666669,77.73215914333333,60,4.375,262.5,3,4,0.3666666666666666,0.25,No Junction,CAR,0.0,Fri,6.17,🟠 HIGH,160,Whitefield — Road Segment
82,12.986188012926828,77.55597750439024,410,2.129268292682927,873.0,22,2,0.3268292682926829,0.1097560975609756,"BTP210 - 50th cross, 12th Main , Rajajinagar",CAR,0.0,Wed,6.13,🟠 HIGH,161,"50th cross, 12th Main , Rajajinagar"
243,12.928626698201798,77.58098399090909,1001,2.0974025974025974,2099.5,3,2,0.2137862137862138,0.0749250749250749,"BTP189 - New Diagonal Road, Jayanagar",SCOOTER,0.0,Wed,6.13,🟠 HIGH,162,"New Diagonal Road, Jayanagar"
227,12.977728173728828,77.54424506341225,824,2.132888349514563,1757.5,5,6,0.4089805825242718,0.049757281553398,BTP068 - Veeresh Theatre Junction,SCOOTER,0.0,Sun,6.12,🟠 HIGH,163,Veeresh Theatre Junction
304,13.045615873170732,77.62718528170731,82,2.5365853658536586,208.0,8,4,0.3170731707317073,0.5365853658536586,No Junction,SCOOTER,0.0,Fri,6.12,🟠 HIGH,164,Hennuru — Road Segment
474,12.997065541666666,77.58372536388889,36,5.208333333333333,187.5,5,3,0.3055555555555556,0.0277777777777777,BTP032 - Windsor Circle,SCOOTER,0.0,Thu,6.11,🟠 HIGH,165,Windsor Circle
501,13.061203175,77.58728833181819,44,3.4545454545454546,152.0,8,5,0.4545454545454545,0.5227272727272727,No Junction,CAR,0.0,Sat,6.1,🟠 HIGH,166,Kodigehalli — Road Segment
137,12.98129579944134,77.5985518916201,1969,2.121381411884206,4177.0,23,2,0.1422041645505332,0.026409344845099,BTP042 - Minsk Square Junction (CTO),SCOOTER,0.0,Wed,6.09,🟠 HIGH,167,Minsk Square Junction (CTO)
469,12.97729381904762,77.57147946190477,21,3.142857142857143,66.0,7,5,0.8095238095238095,0.7142857142857143,BTP048 - Shanthala Junction,PASSENGER AUTO,0.0,Sat,6.07,🟠 HIGH,168,Shanthala Junction
557,12.954299433333333,77.58392024166668,72,2.388888888888889,172.0,5,6,0.3611111111111111,0.125,BTP120 - Lalbagh Main Gate Junction,CAR,0.0,Sun,6.07,🟠 HIGH,169,Lalbagh Main Gate Junction
701,12.970269886206896,77.64313519999999,29,5.896551724137931,171.0,7,6,1.0,0.5862068965517241,No Junction,CAR,0.0,Sun,6.07,🟠 HIGH,170,Jeevanbheemanagar — Road Segment
394,12.942375066666669,77.74723060694446,72,4.548611111111111,327.5,23,1,0.1527777777777778,0.125,No Junction,CAR,0.0,Tue,6.07,🟠 HIGH,171,Whitefield — Road Segment
90,12.931803707861636,77.58376744622642,318,2.1729559748427674,691.0,6,6,0.5345911949685535,0.0660377358490566,BTP219 - Canara Bank Junction,CAR,0.0,Sun,6.07,🟠 HIGH,172,Canara Bank Junction
833,12.979325145652172,77.56428963478261,46,5.086956521739131,234.0,6,0,0.0,0.0,BTP074 - Leprosy Hospital Junction,SCOOTER,0.0,Mon,6.06,🟠 HIGH,173,Leprosy Hospital Junction
61,13.07105568216658,77.58794996042249,5385,2.256545961002786,12151.5,6,0,0.3049210770659238,0.128133704735376,No Junction,SCOOTER,0.0,Mon,6.06,🟠 HIGH,174,Kodigehalli — Road Segment
514,12.931986163399356,77.69594545761186,112,4.419642857142857,495.0,23,1,0.1607142857142857,0.0357142857142857,No Junction,MAXI-CAB,0.0,Tue,6.05,🟠 HIGH,175,HAL Old Airport — Road Segment
411,12.840881372,77.650293012,75,2.62,196.5,7,1,0.44,0.44,No Junction,CAR,0.0,Tue,6.05,🟠 HIGH,176,Electronic City — Road Segment
547,12.9294998872093,77.69481198139535,86,5.261627906976744,452.5,23,1,0.0116279069767441,0.0348837209302325,No Junction,MAXI-CAB,0.0,Tue,6.04,🟠 HIGH,177,Bellandur — Road Segment
170,12.970688067572816,77.54634828563107,515,2.14368932038835,1104.0,23,3,0.2019417475728155,0.0446601941747572,BTP020 - Hosahalli Metro Station,SCOOTER,0.0,Thu,6.04,🟠 HIGH,178,Hosahalli Metro Station
230,12.988193872641508,77.57714234716983,106,2.320754716981132,246.0,2,0,0.2264150943396226,0.0754716981132075,BTP054 - Shivananda Circle,CAR,0.0,Mon,6.04,🟠 HIGH,179,Shivananda Circle
354,12.955221057446808,77.57982232978723,94,2.2872340425531914,215.0,3,2,0.2978723404255319,0.1276595744680851,BTP119 - Minerva Circle,SCOOTER,0.0,Wed,6.03,🟠 HIGH,180,Minerva Circle
342,12.884536602185792,77.6418694125683,183,2.3442622950819674,429.0,21,4,0.2622950819672131,0.3442622950819672,No Junction,LORRY/GOODS VEHICLE,0.0,Fri,6.03,🟠 HIGH,181,Hulimavu — Road Segment
374,12.87626903347826,77.59668688086957,230,2.3217391304347825,534.0,0,2,0.2565217391304348,0.308695652173913,No Junction,SCOOTER,0.0,Wed,6.02,🟠 HIGH,182,Hulimavu — Road Segment
471,12.940350408928571,77.62006795535714,56,3.125,175.0,22,2,0.1785714285714285,0.3571428571428571,No Junction,SCOOTER,0.0,Wed,6.01,🟠 HIGH,183,Adugodi — Road Segment
800,12.95472177,77.58251792749999,40,2.95,118.0,5,5,0.7,0.1,BTP119 - Minerva Circle,SCOOTER,0.0,Sat,6.0,🟠 HIGH,184,Minerva Circle
361,12.937151908461535,77.62711259865385,104,2.451923076923077,255.0,8,1,0.2692307692307692,0.4038461538461538,No Junction,SCOOTER,0.0,Tue,6.0,🟠 HIGH,185,Adugodi — Road Segment
312,12.984522432489452,77.5601040308017,237,2.240506329113924,531.0,5,2,0.2911392405063291,0.0168776371308016,BTP010 - Rajajinagar Entrance,CAR,0.0,Wed,5.99,🟠 HIGH,186,Rajajinagar Entrance
52,12.90360982650767,77.70419515048037,127,2.377952755905512,302.0,6,6,0.3307086614173228,0.3779527559055118,No Junction,CAR,0.0,Sun,5.98,🟠 HIGH,187,Bellandur — Road Segment
297,12.93656452437777,77.7038698004659,50,4.1,205.0,6,1,0.16,0.26,No Junction,SCOOTER,0.0,Tue,5.97,🟠 HIGH,188,HAL Old Airport — Road Segment
363,13.068664273684211,77.53008366842106,57,2.5789473684210527,147.0,7,2,0.3157894736842105,0.5789473684210527,No Junction,SCOOTER,0.0,Wed,5.96,🟠 HIGH,189,Jalahalli — Road Segment
233,13.027607246296297,77.54260912006173,324,2.498456790123457,809.5,0,5,0.4444444444444444,0.0987654320987654,No Junction,MOTOR CYCLE,0.0,Sat,5.96,🟠 HIGH,190,Yeshwanthpura — Road Segment
153,12.896647017058823,77.72004948235295,170,2.6588235294117646,452.0,5,4,0.188235294117647,0.1117647058823529,No Junction,SCOOTER,0.0,Fri,5.95,🟠 HIGH,191,Whitefield — Road Segment
280,12.926234069026547,77.58433439026548,113,2.190265486725664,247.5,2,0,0.1946902654867256,0.1504424778761062,"BTP226 - 33rd Cross, 11th Main, Jayanagar",CAR,0.0,Mon,5.94,🟠 HIGH,192,"33rd Cross, 11th Main, Jayanagar"
108,12.97370688782435,77.62294989021956,501,2.356287425149701,1180.5,23,6,0.3672654690618762,0.1177644710578842,No Junction,CAR,0.0,Sun,5.94,🟠 HIGH,193,Halasur — Road Segment
504,13.001067272413794,77.61226436896551,87,2.839080459770115,247.0,5,5,0.4022988505747126,0.2183908045977011,No Junction,CAR,0.0,Sat,5.94,🟠 HIGH,194,Pulikeshinagar(F.Town) — Road Segment
58,12.975717476554186,77.55982655962377,1680,2.2738095238095237,3820.0,5,4,0.2809523809523809,0.0964285714285714,No Junction,SCOOTER,0.0,Fri,5.93,🟠 HIGH,195,Magadi Road — Road Segment
282,13.006024582539682,77.59319434126984,63,2.761904761904762,174.0,7,0,0.238095238095238,0.3809523809523809,No Junction,CAR,0.0,Mon,5.93,🟠 HIGH,196,R.T. Nagar — Road Segment
795,12.991618314173229,77.65242339921261,127,5.094488188976378,647.0,1,3,0.1811023622047244,0.0,No Junction,CAR,0.0,Thu,5.92,🟠 HIGH,197,Banaswadi — Road Segment
420,12.963026034375,77.55949089375,32,3.25,104.0,0,6,0.625,0.125,BTP091 - Sirsi Circle,CAR,0.0,Sun,5.91,🟠 HIGH,198,Sirsi Circle
502,12.914178702380951,77.58580858333333,42,2.547619047619047,107.0,2,4,0.238095238095238,0.1904761904761904,"BTP177 - Aurobindo Circle, ORR",CAR,0.0,Fri,5.91,🟠 HIGH,199,"Aurobindo Circle, ORR"
481,12.956586767692308,77.70866324,65,2.523076923076923,164.0,20,0,0.0769230769230769,0.5230769230769231,No Junction,MAXI-CAB,0.0,Mon,5.91,🟠 HIGH,200,HAL Old Airport — Road Segment
176,12.96083106711602,77.52825387231269,981,2.2838939857288483,2240.5,6,2,0.1753312945973496,0.1070336391437308,No Junction,SCOOTER,0.0,Wed,5.91,🟠 HIGH,201,Byatarayanapura — Road Segment
494,12.835577066666666,77.67917261794871,39,5.5,214.5,21,3,0.2307692307692307,0.2307692307692307,No Junction,CAR,0.0,Thu,5.9,🟠 HIGH,202,Electronic City — Road Segment
767,13.072191246153846,77.63373878076924,52,3.75,195.0,6,3,0.2884615384615384,0.2307692307692307,No Junction,CAR,0.0,Thu,5.9,🟠 HIGH,203,Hennuru — Road Segment
850,12.85093054137931,77.65745046896551,116,2.3620689655172415,274.0,6,2,0.2844827586206896,0.3620689655172414,No Junction,SCOOTER,0.0,Wed,5.88,🟠 HIGH,204,Electronic City — Road Segment
543,12.932813605405403,77.61339425675675,37,2.3783783783783785,88.0,7,4,0.3243243243243243,0.3783783783783784,BTP140 - Madiwala Check Post,SCOOTER,0.0,Fri,5.88,🟠 HIGH,205,Madiwala Check Post
260,12.96429204247312,77.55095726612903,186,2.435483870967742,453.0,5,5,0.3548387096774194,0.1774193548387097,No Junction,SCOOTER,0.0,Sat,5.88,🟠 HIGH,206,Magadi Road — Road Segment
279,12.919807925974023,77.58366238961038,77,2.207792207792208,170.0,22,3,0.2597402597402597,0.2077922077922078,"BTP191 - 40th Cross, 4th Main, Jayanagar",CAR,0.0,Thu,5.87,🟠 HIGH,207,"40th Cross, 4th Main, Jayanagar"
412,13.041859576288658,77.51450660515464,97,2.881443298969072,279.5,6,1,0.3092783505154639,0.134020618556701,No Junction,SCOOTER,0.0,Tue,5.85,🟠 HIGH,208,Peenya — Road Segment
105,12.968688674418605,77.60154433255815,43,3.186046511627907,137.0,0,4,0.0930232558139534,0.0232558139534883,"BTP099 - Cash Pharmacy, Residency Road",CAR,0.0,Fri,5.84,🟠 HIGH,209,"Cash Pharmacy, Residency Road"
445,12.981004637500002,77.63054816500001,40,8.2875,331.5,3,6,0.625,0.15,No Junction,CAR,0.0,Sun,5.84,🟠 HIGH,210,Halasur — Road Segment
165,12.98920128537931,77.59905723365517,725,2.2282758620689656,1615.5,0,3,0.3172413793103448,0.1613793103448275,No Junction,SCOOTER,0.0,Thu,5.84,🟠 HIGH,211,Shivajinagar — Road Segment
132,12.931958697024838,77.51565213561999,86,3.197674418604651,275.0,2,2,0.3372093023255814,0.1046511627906976,No Junction,CAR,0.0,Wed,5.84,🟠 HIGH,212,Kengeri — Road Segment
318,13.071246031111112,77.63372564,45,4.777777777777778,215.0,2,1,0.2444444444444444,0.2,No Junction,SCOOTER,0.0,Tue,5.84,🟠 HIGH,213,Hennuru — Road Segment
110,12.985457500974029,77.553642049362,982,2.057026476578411,2020.0,2,3,0.2790224032586558,0.0458248472505091,BTP061 - Bhashyam Circle,SCOOTER,0.0,Thu,5.82,🟠 HIGH,214,Bhashyam Circle
274,13.05084348765432,77.55276819320987,162,3.3333333333333335,540.0,22,1,0.0987654320987654,0.0061728395061728,No Junction,SCOOTER,0.0,Tue,5.82,🟠 HIGH,215,Jalahalli — Road Segment
311,12.987150355092592,77.58031451342593,216,2.178240740740741,470.5,2,6,0.4074074074074074,0.037037037037037,BTP054 - Shivananda Circle,CAR,0.0,Sun,5.82,🟠 HIGH,216,Shivananda Circle
372,13.022109736190476,77.53269273047619,105,2.5428571428571427,267.0,0,1,0.2666666666666666,0.238095238095238,No Junction,HGV,0.0,Tue,5.82,🟠 HIGH,217,Rajajinagar — Road Segment
344,12.937596368421053,77.6106607368421,19,2.8421052631578947,54.0,8,6,0.7368421052631579,0.8421052631578947,BTP136 - Hosur-Tavarkere Road Junction,SCOOTER,0.0,Sun,5.82,🟠 HIGH,218,Hosur-Tavarkere Road Junction
158,12.887224897931034,77.64083514137931,145,2.317241379310345,336.0,21,3,0.2620689655172414,0.3172413793103448,No Junction,CAR,0.0,Thu,5.8,🟠 HIGH,219,Hulimavu — Road Segment
24,12.925961181992752,77.67648393543482,674,2.206231454005935,1487.0,23,3,0.0563798219584569,0.1884272997032641,No Junction,CAR,0.0,Thu,5.8,🟠 HIGH,220,Bellandur — Road Segment
98,12.98659242267303,77.5744809424821,419,2.2219570405727924,931.0,21,3,0.315035799522673,0.2219570405727923,No Junction,CAR,0.0,Thu,5.8,🟠 HIGH,221,Sheshadripuram — Road Segment
250,12.944739723809525,77.59708451785714,84,2.1904761904761907,184.0,3,0,0.238095238095238,0.1904761904761904,"BTP123 - 10th Cross, Wilson Garden",CAR,0.0,Mon,5.8,🟠 HIGH,222,"10th Cross, Wilson Garden"
578,13.046329612903223,77.5225468516129,31,2.903225806451613,90.0,18,4,0.1935483870967742,0.8064516129032258,No Junction,CAR,0.0,Fri,5.77,🟠 HIGH,223,Jalahalli — Road Segment
114,12.875766145419847,77.6480451385496,262,2.2442748091603053,588.0,21,6,0.3244274809160305,0.232824427480916,No Junction,CAR,0.0,Sun,5.75,🟠 HIGH,224,Hulimavu — Road Segment
43,12.945130367202363,77.59502675297794,272,2.0919117647058822,569.0,6,4,0.2830882352941176,0.0808823529411764,"BTP123 - 10th Cross, Wilson Garden",SCOOTER,0.0,Fri,5.75,🟠 HIGH,225,"10th Cross, Wilson Garden"
476,12.960581054838707,77.63852746451613,62,2.338709677419355,145.0,5,1,0.4032258064516129,0.0967741935483871,BTP146 - Domlur Water Tank,SCOOTER,0.0,Tue,5.73,🟠 HIGH,226,Domlur Water Tank
553,12.915287623684211,77.58582061315789,38,2.5526315789473686,97.0,6,1,0.131578947368421,0.1578947368421052,"BTP177 - Aurobindo Circle, ORR",CAR,0.0,Tue,5.73,🟠 HIGH,227,"Aurobindo Circle, ORR"
457,12.986702138461538,77.6901161576923,26,3.0,78.0,19,2,0.0,1.0,No Junction,SCOOTER,0.0,Wed,5.73,🟠 HIGH,228,Mahadevapura — Road Segment
760,12.992618225991189,77.55805506211453,227,2.092511013215859,475.0,22,4,0.1541850220264317,0.092511013215859,BTP009 - Prakash Nagar Junction,SCOOTER,0.0,Fri,5.72,🟠 HIGH,229,Prakash Nagar Junction
67,12.979484012372568,77.60361091357143,28,2.642857142857143,74.0,19,2,0.1071428571428571,0.3214285714285714,BTP211 - Central Street Junction,CAR,0.0,Wed,5.72,🟠 HIGH,230,Central Street Junction
446,12.96722365,77.59434389615384,52,2.3365384615384617,121.5,1,2,0.1153846153846153,0.1346153846153846,BTP203 - RRMR Junction,CAR,0.0,Wed,5.71,🟠 HIGH,231,RRMR Junction
285,12.989153827777775,77.50785188444445,90,2.6944444444444446,242.5,23,0,0.3,0.1666666666666666,No Junction,CAR,0.0,Mon,5.71,🟠 HIGH,232,Kamakshipalya — Road Segment
772,12.855515928125,77.66433365,32,4.78125,153.0,21,1,0.21875,0.34375,No Junction,CAR,0.0,Tue,5.7,🟠 HIGH,233,Electronic City — Road Segment
99,12.957953450406505,77.58635383008131,369,2.102981029810298,776.0,2,4,0.1734417344173441,0.040650406504065,BTP192 - Urvashi Theater,CAR,0.0,Fri,5.7,🟠 HIGH,234,Urvashi Theater
414,12.978936674285714,77.59205290571428,35,2.414285714285714,84.5,5,0,0.2571428571428571,0.2857142857142857,BTP047 - Vidhan Soudha Metro Station,SCOOTER,0.0,Mon,5.69,🟠 HIGH,235,Vidhan Soudha Metro Station
95,13.027859919530233,77.57469224564295,1210,2.1942148760330578,2655.0,5,1,0.2661157024793388,0.1198347107438016,No Junction,CAR,0.0,Tue,5.69,🟠 HIGH,236,Sadashivanagar — Road Segment
314,12.955749143181816,77.718445875,44,5.193181818181818,228.5,5,4,0.3181818181818182,0.1136363636363636,No Junction,CAR,0.0,Fri,5.69,🟠 HIGH,237,Whitefield — Road Segment
22,12.927436589925572,77.67983796761098,1287,2.173271173271173,2797.0,21,2,0.0722610722610722,0.1421911421911421,No Junction,MAXI-CAB,0.0,Wed,5.69,🟠 HIGH,238,Bellandur — Road Segment
415,12.936981622429776,77.70270666342196,50,2.84,142.0,8,1,0.18,0.32,No Junction,SCOOTER,0.0,Tue,5.69,🟠 HIGH,239,HAL Old Airport — Road Segment
371,12.951478011111112,77.59056604603175,63,2.2222222222222223,140.0,2,6,0.4603174603174603,0.1746031746031746,BTP121 - KH Circle,SCOOTER,0.0,Sun,5.68,🟠 HIGH,240,KH Circle
28,12.97296600133418,77.61601048284625,1574,2.228081321473952,3507.0,22,2,0.1893265565438373,0.0609911054637865,No Junction,PASSENGER AUTO,0.0,Wed,5.67,🟠 HIGH,241,Halasur — Road Segment
144,12.913684859599332,77.60647384641068,599,2.1886477462437397,1311.0,6,5,0.4257095158597663,0.1769616026711185,No Junction,SCOOTER,0.0,Sat,5.67,🟠 HIGH,242,Mico Layout — Road Segment
135,13.045399838842975,77.50714708677687,242,2.2892561983471076,554.0,0,1,0.3760330578512397,0.1611570247933884,No Junction,MOTOR CYCLE,0.0,Tue,5.66,🟠 HIGH,243,Peenya — Road Segment
186,13.072372510362694,77.59107586424871,193,2.3471502590673574,453.0,4,6,0.5595854922279793,0.1450777202072538,No Junction,CAR,0.0,Sun,5.65,🟠 HIGH,244,Kodigehalli — Road Segment
532,12.947943583783784,77.53456858108107,37,3.918918918918919,145.0,4,3,0.2162162162162162,0.2972972972972973,No Junction,CAR,0.0,Thu,5.65,🟠 HIGH,245,Byatarayanapura — Road Segment
187,12.925573835135136,77.63350005225224,111,2.644144144144144,293.5,2,5,0.3333333333333333,0.0990990990990991,No Junction,CAR,0.0,Sat,5.65,🟠 HIGH,246,Adugodi — Road Segment
515,12.9611512310559,77.63671949192546,161,2.1614906832298137,348.0,23,5,0.4161490683229814,0.0434782608695652,"BTP145 - Sri Hatti Maramma Circle, Domluru",CAR,0.0,Sat,5.65,🟠 HIGH,247,"Sri Hatti Maramma Circle, Domluru"
704,12.919265020922484,77.54216757014417,24,5.0,120.0,7,3,0.3333333333333333,0.625,No Junction,PASSENGER AUTO,0.0,Thu,5.65,🟠 HIGH,248,Banashankari — Road Segment
376,12.89434402007266,77.65719574162623,67,2.917910447761194,195.5,4,0,0.2835820895522388,0.1492537313432835,No Junction,SCOOTER,0.0,Mon,5.64,🟠 HIGH,249,HSR Layout — Road Segment
705,12.985495382978725,77.74574369042553,94,4.946808510638298,465.0,4,2,0.5319148936170213,0.0,No Junction,SCOOTER,0.0,Wed,5.64,🟠 HIGH,250,Whitefield — Road Segment
152,12.989771647536946,77.55321829137931,406,2.0665024630541873,839.0,22,2,0.1699507389162561,0.0492610837438423,"BTP204 - ESI Hospital, Rajajinagar",PASSENGER AUTO,0.0,Wed,5.64,🟠 HIGH,251,"ESI Hospital, Rajajinagar"
224,12.959399005030946,77.6557879853466,63,3.9444444444444446,248.5,3,0,0.3492063492063492,0.0634920634920634,No Junction,CAR,0.0,Mon,5.64,🟠 HIGH,252,Jeevanbheemanagar — Road Segment
569,12.938090695918367,77.74675863265306,49,4.6938775510204085,230.0,0,0,0.2040816326530612,0.0816326530612244,No Junction,SCOOTER,0.0,Mon,5.63,🟠 HIGH,253,Whitefield — Road Segment
338,12.980028045779012,77.60544989090687,66,2.257575757575758,149.0,4,6,0.4090909090909091,0.106060606060606,BTP051 - Safina Plaza Junction,CAR,0.0,Sun,5.63,🟠 HIGH,254,Safina Plaza Junction
46,13.03529960373789,77.58902305058348,3221,2.1432784849425643,6903.5,22,2,0.2493014591741695,0.1244954982924557,No Junction,SCOOTER,0.0,Wed,5.62,🟠 HIGH,255,Hebbala — Road Segment
281,12.98624098181818,77.73363660151516,66,2.9696969696969697,196.0,22,2,0.2878787878787879,0.1212121212121212,No Junction,MOTOR CYCLE,0.0,Wed,5.61,🟠 HIGH,256,Whitefield — Road Segment
32,13.010297649513111,77.55334079474781,10203,2.1427031265314125,21862.0,4,6,0.3733215720866412,0.1048711163383318,No Junction,CAR,0.0,Sun,5.61,🟠 HIGH,257,Malleshwaram — Road Segment
305,12.970168633945429,77.61020374565089,93,2.3440860215053765,218.0,7,0,0.3440860215053763,0.3440860215053763,No Junction,PASSENGER AUTO,0.0,Mon,5.61,🟠 HIGH,258,Ashok Nagar — Road Segment
832,12.911093357894735,77.57579534210527,19,2.736842105263158,52.0,18,5,0.7894736842105263,0.7368421052631579,BTP196 - Sarakki Main Road,CAR,0.0,Sat,5.6,🟠 HIGH,259,Sarakki Main Road
220,12.961894156,77.58926159399999,50,2.38,119.0,5,4,0.28,0.08,BTP180 - Swagath Poornima Theatre,CAR,0.0,Fri,5.6,🟠 HIGH,260,Swagath Poornima Theatre
424,12.96806131724138,77.57022611724138,29,2.7586206896551726,80.0,2,6,0.3448275862068966,0.1724137931034483,BTP085 - Briyand Circle,SCOOTER,0.0,Sun,5.59,🟠 HIGH,261,Briyand Circle
47,12.959568845373738,77.64507165864156,802,2.3135910224438905,1855.5,22,3,0.213216957605985,0.0236907730673316,No Junction,MAXI-CAB,0.0,Thu,5.59,🟠 HIGH,262,Jeevanbheemanagar — Road Segment
341,12.978484091304349,77.57236633913043,23,2.608695652173913,60.0,8,2,0.3478260869565217,0.4782608695652174,BTP057 - Anand Rao Junction,CAR,0.0,Wed,5.59,🟠 HIGH,263,Anand Rao Junction
733,13.015067027777778,77.52966141666667,18,8.63888888888889,155.5,7,6,0.6111111111111112,0.9444444444444444,No Junction,CAR,0.0,Sun,5.58,🟠 HIGH,264,Rajajinagar — Road Segment
302,12.905836731464182,77.54248083271551,58,2.4741379310344827,143.5,7,4,0.2413793103448276,0.396551724137931,No Junction,SCOOTER,0.0,Fri,5.56,🟠 HIGH,265,K.S. Layout — Road Segment
213,12.988687368421052,77.55897524736842,38,2.289473684210526,87.0,20,6,0.6052631578947368,0.2894736842105263,"BTP015 - Suguna Hospital, Dr. Rajkumar Road",CAR,0.0,Sun,5.56,🟠 HIGH,266,"Suguna Hospital, Dr. Rajkumar Road"
607,12.994442952941176,77.55538974117647,17,2.823529411764706,48.0,20,4,0.2352941176470588,0.8235294117647058,"BTP011 - RR Kalyana Mantapa, Dr. Rajkumar Road",CAR,0.0,Fri,5.55,🟠 HIGH,267,"RR Kalyana Mantapa, Dr. Rajkumar Road"
740,12.966881407547172,77.65806183207548,53,4.2924528301886795,227.5,0,1,0.0188679245283018,0.0566037735849056,No Junction,CAR,0.0,Tue,5.54,🟠 HIGH,268,Jeevanbheemanagar — Road Segment
352,13.099283572897384,77.59741708574597,69,2.5869565217391304,178.5,3,4,0.0869565217391304,0.217391304347826,No Junction,MOTOR CYCLE,0.0,Fri,5.54,🟠 HIGH,269,Yelahanka — Road Segment
386,12.900293984313723,77.58586149411764,51,2.5392156862745097,129.5,6,2,0.2549019607843137,0.392156862745098,No Junction,SCOOTER,0.0,Wed,5.53,🟠 HIGH,270,J.P. Nagar — Road Segment
485,13.060462455555555,77.65207275238096,63,2.3968253968253967,151.0,5,6,0.6984126984126984,0.3968253968253968,No Junction,CAR,0.0,Sun,5.52,🟠 HIGH,271,Hennuru — Road Segment
200,12.990402505305466,77.57234730932475,622,2.210610932475884,1375.0,5,6,0.3038585209003215,0.085209003215434,No Junction,SCOOTER,0.0,Sun,5.52,🟠 HIGH,272,Sheshadripuram — Road Segment
215,12.910607272727272,77.57346331636363,55,2.272727272727273,125.0,21,4,0.2,0.109090909090909,"BTP117 - 9th Cross, Kanakapura Road",GOODS AUTO,0.0,Fri,5.52,🟠 HIGH,273,"9th Cross, Kanakapura Road"
192,12.980080097413792,77.59295899741379,116,2.2025862068965516,255.5,4,0,0.0603448275862069,0.0172413793103448,BTP047 - Vidhan Soudha Metro Station,CAR,0.0,Mon,5.52,🟠 HIGH,274,Vidhan Soudha Metro Station
139,13.00686193796296,77.57876430648147,108,2.4953703703703702,269.5,6,4,0.1296296296296296,0.1296296296296296,No Junction,SCOOTER,0.0,Fri,5.52,🟠 HIGH,275,Sadashivanagar — Road Segment
362,12.957375813333334,77.5522327,15,5.3,79.5,19,2,0.0666666666666666,0.5333333333333333,"BTP093 - Toll Gate, Mysore Road",PASSENGER AUTO,0.0,Wed,5.52,🟠 HIGH,276,"Toll Gate, Mysore Road"
490,12.961429763793817,77.63516422888641,41,2.292682926829268,94.0,22,5,0.5365853658536586,0.2195121951219512,"BTP145 - Sri Hatti Maramma Circle, Domluru",CAR,0.0,Sat,5.51,🟠 HIGH,277,"Sri Hatti Maramma Circle, Domluru"
207,12.888452204557662,77.56261223281517,263,2.201520912547529,579.0,5,0,0.2091254752851711,0.1939163498098859,No Junction,SCOOTER,0.0,Mon,5.51,🟠 HIGH,278,Thalagattapura — Road Segment
265,12.913767463397692,77.67808541161251,165,2.275757575757576,375.5,6,2,0.2242424242424242,0.1818181818181818,No Junction,SCOOTER,0.0,Wed,5.49,🟠 HIGH,279,Bellandur — Road Segment
454,12.971748828571426,77.59461318095238,21,4.119047619047619,86.5,4,5,0.8571428571428571,0.1904761904761904,BTP063 - Siddalingaiah Circle,CAR,0.0,Sat,5.49,🟠 HIGH,280,Siddalingaiah Circle
248,12.987007057390027,77.5192376010845,175,2.222857142857143,389.0,4,2,0.2228571428571428,0.2228571428571428,No Junction,SCOOTER,0.0,Wed,5.49,🟠 HIGH,281,Kamakshipalya — Road Segment
290,12.974821364207337,77.62543291164333,61,3.639344262295082,222.0,2,0,0.3442622950819672,0.0491803278688524,No Junction,CAR,0.0,Mon,5.49,🟠 HIGH,282,Halasur — Road Segment
444,12.981165970967742,77.62856672258064,31,7.67741935483871,238.0,4,6,0.7741935483870968,0.1612903225806451,No Junction,CAR,0.0,Sun,5.49,🟠 HIGH,283,Halasur — Road Segment
668,12.883518666089724,77.75228890888165,43,3.744186046511628,161.0,22,6,0.627906976744186,0.1627906976744186,No Junction,CAR,0.0,Sun,5.48,🟠 HIGH,284,No Police Station — Road Segment
495,12.976153062000002,77.53126286599999,50,2.26,113.0,6,2,0.06,0.14,BTP214 - 5th Main Chamrajpet  Junction,SCOOTER,0.0,Wed,5.48,🟠 HIGH,285,5th Main Chamrajpet  Junction
829,12.958040005882353,77.55396364117647,17,5.235294117647059,89.0,2,4,0.0588235294117647,0.2941176470588235,"BTP093 - Toll Gate, Mysore Road",CAR,0.0,Fri,5.48,🟠 HIGH,286,"Toll Gate, Mysore Road"
204,12.960440330882353,77.60155917794117,68,2.161764705882353,147.0,2,4,0.2058823529411764,0.1617647058823529,BTP172 - Nanjappa Circle,SCOOTER,0.0,Fri,5.47,🟠 HIGH,287,Nanjappa Circle
100,13.03580103783784,77.73539217027027,37,5.027027027027027,186.0,6,2,0.1891891891891892,0.1081081081081081,No Junction,CAR,0.0,Wed,5.45,🟠 HIGH,288,K.R. Pura — Road Segment
127,12.961978118544367,77.59867089361914,1003,2.0179461615154537,2024.0,22,2,0.0877367896311066,0.011964107676969,BTP172 - Nanjappa Circle,SCOOTER,0.0,Wed,5.45,🟠 HIGH,289,Nanjappa Circle
513,12.977899651515152,77.71294216666666,66,5.090909090909091,336.0,1,3,0.0,0.0,No Junction,SCOOTER,0.0,Thu,5.43,🟠 HIGH,290,Mahadevapura — Road Segment
11,12.98877580173516,77.5921577615872,244,2.0860655737704916,509.0,0,5,0.3155737704918033,0.0245901639344262,BTP034 - LRDE Junction,CAR,0.0,Sat,5.43,🟠 HIGH,291,LRDE Junction
37,12.906832711369612,77.6966449075745,184,2.2119565217391304,407.0,2,2,0.2065217391304347,0.2119565217391304,No Junction,SCOOTER,0.0,Wed,5.43,🟠 HIGH,292,Bellandur — Road Segment
93,12.96800186178636,77.58858098845651,387,2.056847545219638,796.0,23,3,0.2403100775193798,0.0232558139534883,BTP076 - Hudson Circle,SCOOTER,0.0,Thu,5.43,🟠 HIGH,293,Hudson Circle
212,12.931574402877697,77.58606146546762,139,2.1079136690647484,293.0,4,5,0.3381294964028777,0.0647482014388489,BTP219 - Canara Bank Junction,CAR,0.0,Sat,5.43,🟠 HIGH,294,Canara Bank Junction
823,12.854895807142857,77.664791775,28,4.964285714285714,139.0,20,1,0.1428571428571428,0.2857142857142857,No Junction,SCOOTER,0.0,Tue,5.42,🟠 HIGH,295,Electronic City — Road Segment
320,12.987058693694232,77.61943576738648,98,2.5,245.0,6,1,0.2244897959183673,0.1122448979591836,No Junction,CAR,0.0,Tue,5.42,🟠 HIGH,296,Pulikeshinagar(F.Town) — Road Segment
548,12.979061341124003,77.6408681921439,28,4.571428571428571,128.0,0,6,0.4642857142857143,0.3214285714285714,No Junction,CAR,0.0,Sun,5.4,🟠 HIGH,297,Jeevanbheemanagar — Road Segment
156,13.0569585689441,77.54719464099378,161,2.2422360248447206,361.0,6,0,0.3664596273291925,0.1801242236024844,No Junction,CAR,0.0,Mon,5.39,🟠 HIGH,298,Jalahalli — Road Segment
450,12.938455397619046,77.53351792142857,42,2.6904761904761907,113.0,21,1,0.3571428571428571,0.3571428571428571,No Junction,SCOOTER,0.0,Tue,5.38,🟠 HIGH,299,Banashankari — Road Segment
614,12.924732176190476,77.58591395238095,21,6.476190476190476,136.0,2,0,0.0952380952380952,0.0476190476190476,"BTP226 - 33rd Cross, 11th Main, Jayanagar",CAR,0.0,Mon,5.38,🟠 HIGH,300,"33rd Cross, 11th Main, Jayanagar"
177,12.911882037804878,77.64454296951219,82,2.3048780487804876,189.0,5,4,0.1585365853658536,0.3048780487804878,No Junction,CAR,0.0,Fri,5.37,🟠 HIGH,301,HSR Layout — Road Segment
166,13.008480470731708,77.54300357902439,205,2.2585365853658534,463.0,22,4,0.3024390243902439,0.1170731707317073,No Junction,SCOOTER,0.0,Fri,5.37,🟠 HIGH,302,Rajajinagar — Road Segment
169,12.96883192962963,77.5680650962963,27,4.796296296296297,129.5,20,3,0.1851851851851851,0.2962962962962963,No Junction,CAR,0.0,Thu,5.33,🟠 HIGH,303,Chamarajpet — Road Segment
583,12.90632557878788,77.5908444090909,33,2.5454545454545454,84.0,21,6,0.5454545454545454,0.0909090909090909,BTP222 - Delmia Circle,CAR,0.0,Sun,5.32,🟠 HIGH,304,Delmia Circle
461,12.979630614814814,77.59134273333332,27,2.962962962962963,80.0,5,0,0.037037037037037,0.074074074074074,BTP047 - Vidhan Soudha Metro Station,MOTOR CYCLE,0.0,Mon,5.32,🟠 HIGH,305,Vidhan Soudha Metro Station
537,12.96796774101544,77.70158557564834,30,4.45,133.5,4,1,0.0666666666666666,0.2333333333333333,No Junction,CAR,0.0,Tue,5.32,🟠 HIGH,306,HAL Old Airport — Road Segment
636,12.92186008974359,77.58583968205127,39,2.948717948717949,115.0,4,4,0.4102564102564102,0.2307692307692307,No Junction,CAR,0.0,Fri,5.3,🟠 HIGH,307,Jayanagara — Road Segment
369,13.00301269122807,77.55340500087719,114,2.1228070175438596,242.0,23,3,0.4561403508771929,0.043859649122807,"BTP001 - 10th Cross, Dr. Rajkumar Road",CAR,0.0,Thu,5.3,🟠 HIGH,308,"10th Cross, Dr. Rajkumar Road"
242,12.92091399781247,77.66537369951646,248,2.1693548387096775,538.0,5,5,0.3387096774193548,0.1693548387096774,No Junction,SCOOTER,0.0,Sat,5.29,🟠 HIGH,309,Bellandur — Road Segment
44,12.998265558907152,77.5709618731815,3814,2.1076297850026218,8038.5,5,6,0.3550078657577347,0.0705296276874672,No Junction,CAR,0.0,Sun,5.28,🟠 HIGH,310,Malleshwaram — Road Segment
289,13.058364151071576,77.59316319729975,124,2.217741935483871,275.0,5,5,0.2983870967741935,0.2177419354838709,No Junction,CAR,0.0,Sat,5.28,🟠 HIGH,311,Kodigehalli — Road Segment
436,12.931539546808512,77.6928028531915,47,4.6063829787234045,216.5,5,3,0.0,0.0212765957446808,No Junction,CAR,0.0,Thu,5.28,🟠 HIGH,312,HAL Old Airport — Road Segment
644,13.06879932972973,77.62592455135135,37,2.5135135135135136,93.0,8,3,0.1351351351351351,0.5135135135135135,No Junction,SCOOTER,0.0,Thu,5.28,🟠 HIGH,313,Hennuru — Road Segment
353,12.987417077272728,77.58258061363637,22,2.840909090909091,62.5,5,2,0.0909090909090909,0.2272727272727272,BTP054 - Shivananda Circle,CAR,0.0,Wed,5.27,🟠 HIGH,314,Shivananda Circle
443,12.97944121875,77.6291956125,32,9.40625,301.0,2,6,0.8125,0.0625,No Junction,CAR,0.0,Sun,5.27,🟠 HIGH,315,Halasur — Road Segment
106,12.97301893116612,77.62011771934075,266,2.218045112781955,590.0,5,6,0.4360902255639097,0.0789473684210526,No Junction,CAR,0.0,Sun,5.27,🟠 HIGH,316,Halasur — Road Segment
458,12.992784009726352,77.66390396298901,22,2.909090909090909,64.0,8,4,0.0,0.9090909090909092,No Junction,SCOOTER,0.0,Fri,5.26,🟠 HIGH,317,Banaswadi — Road Segment
50,13.02285230412844,77.59287173486238,436,2.153669724770642,939.0,2,1,0.1192660550458715,0.1123853211009174,No Junction,CAR,0.0,Tue,5.26,🟠 HIGH,318,R.T. Nagar — Road Segment
560,12.97604214,77.53225277499999,20,2.7,54.0,7,2,0.05,0.4,BTP214 - 5th Main Chamrajpet  Junction,CAR,0.0,Wed,5.25,🟠 HIGH,319,5th Main Chamrajpet  Junction
359,12.885802814147416,77.64163450707079,122,2.2131147540983607,270.0,21,4,0.2049180327868852,0.2131147540983606,No Junction,SCOOTER,0.0,Fri,5.25,🟠 HIGH,320,Hulimavu — Road Segment
384,12.980804211206896,77.59716946982759,116,2.125,246.5,23,3,0.2327586206896551,0.0258620689655172,BTP042 - Minsk Square Junction (CTO),SCOOTER,0.0,Thu,5.24,🟠 HIGH,321,Minsk Square Junction (CTO)
472,13.050215884745764,77.4945259118644,59,2.3389830508474576,138.0,21,0,0.0847457627118644,0.3389830508474576,No Junction,CAR,0.0,Mon,5.24,🟠 HIGH,322,Chikkabanavara — Road Segment
572,13.039558127868853,77.58961711639344,61,2.5655737704918034,156.5,4,4,0.2622950819672131,0.1475409836065573,No Junction,SCOOTER,0.0,Fri,5.24,🟠 HIGH,323,Hebbala — Road Segment
211,12.987881121296295,77.61795377962963,108,2.388888888888889,258.0,4,3,0.1851851851851851,0.0833333333333333,No Junction,SCOOTER,0.0,Thu,5.24,🟠 HIGH,324,Pulikeshinagar(F.Town) — Road Segment
741,12.911007544444445,77.57690332777777,18,2.7222222222222223,49.0,18,5,0.6111111111111112,0.5555555555555556,BTP196 - Sarakki Main Road,SCOOTER,0.0,Sat,5.24,🟠 HIGH,325,Sarakki Main Road
241,13.05991367086316,77.57666217981725,84,2.297619047619047,193.0,7,5,0.3095238095238095,0.238095238095238,No Junction,PASSENGER AUTO,0.0,Sat,5.24,🟠 HIGH,326,Kodigehalli — Road Segment
683,12.99808545,77.693117745,20,3.0,60.0,20,4,0.0,1.0,No Junction,MOTOR CYCLE,0.0,Fri,5.23,🟠 HIGH,327,Mahadevapura — Road Segment
131,12.908489299324325,77.60070470405405,296,2.054054054054054,608.0,0,5,0.4324324324324324,0.0067567567567567,BTP130 - GD Mara Junction,SCOOTER,0.0,Sat,5.21,🟠 HIGH,328,GD Mara Junction
231,13.002824412,77.526148756,25,5.6,140.0,6,4,0.12,0.24,No Junction,CAR,0.0,Fri,5.21,🟠 HIGH,329,Rajajinagar — Road Segment
638,12.918079902564102,77.67120747435898,39,2.8205128205128207,110.0,5,3,0.2564102564102564,0.2307692307692307,No Junction,CAR,0.0,Thu,5.2,🟠 HIGH,330,Bellandur — Road Segment
103,12.98379766386456,77.52902860134954,55,2.363636363636364,130.0,7,0,0.2181818181818181,0.3090909090909091,No Junction,SCOOTER,0.0,Mon,5.2,🟠 HIGH,331,Kamakshipalya — Road Segment
743,12.967840125,77.63666111875,16,6.15625,98.5,7,2,0.0,0.875,No Junction,CAR,0.0,Wed,5.19,🟠 HIGH,332,Jeevanbheemanagar — Road Segment
316,12.958838230984824,77.65983038272724,27,4.888888888888889,132.0,1,4,0.3703703703703703,0.2222222222222222,No Junction,SCOOTER,0.0,Fri,5.19,🟠 HIGH,333,Jeevanbheemanagar — Road Segment
488,13.071065265,77.59250248500001,100,2.31,231.0,5,6,0.47,0.14,No Junction,SCOOTER,0.0,Sun,5.18,🟠 HIGH,334,Kodigehalli — Road Segment
406,12.883601068749998,77.64290444166666,48,2.375,114.0,20,2,0.2916666666666667,0.375,No Junction,CAR,0.0,Wed,5.18,🟠 HIGH,335,Hulimavu — Road Segment
315,12.944024997979795,77.5731014469697,198,2.0454545454545454,405.0,23,0,0.3484848484848485,0.0303030303030303,BTP108 - Tagore Park Junction,CAR,0.0,Mon,5.17,🟠 HIGH,336,Tagore Park Junction
617,12.931209207317076,77.69505714634147,41,4.170731707317073,171.0,5,3,0.024390243902439,0.048780487804878,No Junction,CAR,0.0,Thu,5.17,🟠 HIGH,337,Bellandur — Road Segment
313,12.94715012027027,77.59077726486487,74,2.108108108108108,156.0,2,0,0.2162162162162162,0.1081081081081081,BTP122 - Siddapura Junction,PASSENGER AUTO,0.0,Mon,5.16,🟠 HIGH,338,Siddapura Junction
510,13.081697045835805,77.54821351601763,46,2.8369565217391304,130.5,2,3,0.2826086956521739,0.1304347826086956,No Junction,PASSENGER AUTO,0.0,Thu,5.15,🟠 HIGH,339,Yelahanka — Road Segment
739,12.910921684,77.587576072,25,2.48,62.0,2,2,0.48,0.24,"BTP197 - 9th Cross, 24th Main, JP Nagar",CAR,0.0,Wed,5.14,🟠 HIGH,340,"9th Cross, 24th Main, JP Nagar"
404,12.94809933151515,77.57997989757577,165,2.084848484848485,344.0,21,0,0.4121212121212121,0.0121212121212121,BTP184 - Lalbagh West Gate,SCOOTER,0.0,Mon,5.14,🟠 HIGH,341,Lalbagh West Gate
254,12.96725089642857,77.56809079285713,28,2.375,66.5,21,1,0.0357142857142857,0.2142857142857142,BTP085 - Briyand Circle,PASSENGER AUTO,0.0,Tue,5.14,🟠 HIGH,342,Briyand Circle
840,12.90555628,77.58564196666666,15,3.2,48.0,8,1,0.0666666666666666,0.6,"BTP221 - 15th Cross, 24th Main, JP Nagar",SCOOTER,0.0,Tue,5.14,🟠 HIGH,343,"15th Cross, 24th Main, JP Nagar"
34,13.006745127621748,77.5705538788199,3881,2.0726616851326978,8044.0,2,6,0.3197629476938933,0.0651893841793352,No Junction,CAR,0.0,Sun,5.13,🟠 HIGH,344,Malleshwaram — Road Segment
184,13.093564326385223,77.59420467862797,379,2.1266490765171504,806.0,0,6,0.4327176781002638,0.1266490765171504,No Junction,SCOOTER,0.0,Sun,5.13,🟠 HIGH,345,Yelahanka — Road Segment
125,12.963092438018576,77.71725117248795,2712,2.1325589970501473,5783.5,23,1,0.2212389380530973,0.0210176991150442,No Junction,MAXI-CAB,0.0,Tue,5.12,🟠 HIGH,346,HAL Old Airport — Road Segment
425,13.049974378125,77.50769154375,32,2.53125,81.0,5,3,0.1875,0.53125,No Junction,CAR,0.0,Thu,5.11,🟠 HIGH,347,Chikkabanavara — Road Segment
579,13.00555015952381,77.58056863809523,42,3.130952380952381,131.5,2,6,0.4285714285714285,0.0952380952380952,No Junction,CAR,0.0,Sun,5.1,🟠 HIGH,348,Sadashivanagar — Road Segment
719,13.16123732,77.626400785,20,3.625,72.5,20,1,0.0,0.7,No Junction,SCOOTER,0.0,Tue,5.1,🟠 HIGH,349,Chikkajala — Road Segment
517,12.947572902702705,77.53369218378378,37,3.756756756756757,139.0,6,5,0.4054054054054054,0.081081081081081,No Junction,CAR,0.0,Sat,5.09,🟠 HIGH,350,Byatarayanapura — Road Segment
550,13.0487747186,77.4981921736,50,2.91,145.5,0,3,0.3,0.06,No Junction,SCOOTER,0.0,Thu,5.09,🟠 HIGH,351,Chikkabanavara — Road Segment
332,12.989618783969464,77.6018712610687,131,2.1908396946564888,287.0,21,1,0.2061068702290076,0.1755725190839694,No Junction,PASSENGER AUTO,0.0,Tue,5.08,🟠 HIGH,352,Shivajinagar — Road Segment
678,13.03291615,77.62727093,30,2.6,78.0,20,6,0.5,0.5,No Junction,CAR,0.0,Sun,5.08,🟠 HIGH,353,K.G. Halli — Road Segment
487,12.904784571428571,77.58568840000001,35,2.342857142857143,82.0,6,2,0.1428571428571428,0.0857142857142857,"BTP221 - 15th Cross, 24th Main, JP Nagar",CAR,0.0,Wed,5.07,🟠 HIGH,354,"15th Cross, 24th Main, JP Nagar"
389,12.995030063779527,77.5516768984252,127,2.047244094488189,260.0,0,3,0.3307086614173228,0.0472440944881889,"BTP182 - 19th Main Junction, Rajajinagar",SCOOTER,0.0,Thu,5.05,🟠 HIGH,355,"19th Main Junction, Rajajinagar"
140,12.990307040769231,77.57460383423077,260,2.1596153846153845,561.5,3,1,0.2423076923076923,0.0884615384615384,No Junction,CAR,0.0,Tue,5.04,🟠 HIGH,356,Sheshadripuram — Road Segment
665,12.930945168181818,77.60825897272728,22,2.4545454545454546,54.0,5,5,0.5454545454545454,0.3181818181818182,BTP136 - Hosur-Tavarkere Road Junction,SCOOTER,0.0,Sat,5.03,🟠 HIGH,357,Hosur-Tavarkere Road Junction
63,13.023849725583826,77.58498437908572,398,2.1231155778894473,845.0,5,1,0.2537688442211055,0.092964824120603,No Junction,CAR,0.0,Tue,5.03,🟠 HIGH,358,R.T. Nagar — Road Segment
202,12.93153294888889,77.59254762666666,45,2.3555555555555556,106.0,7,2,0.0,0.3555555555555555,No Junction,SCOOTER,0.0,Wed,5.02,🟠 HIGH,359,Jayanagara — Road Segment
483,12.872928720746868,77.59423392223707,45,2.3555555555555556,106.0,20,0,0.0,0.3555555555555555,No Junction,SCOOTER,0.0,Mon,5.02,🟠 HIGH,360,Hulimavu — Road Segment
671,12.979805508695652,77.5106104347826,23,5.326086956521739,122.5,6,2,0.391304347826087,0.217391304347826,No Junction,CAR,0.0,Wed,5.01,🟠 HIGH,361,Jnanabharathi — Road Segment
641,13.049045831818182,77.54761679545454,22,7.113636363636363,156.5,1,0,0.4090909090909091,0.2272727272727272,No Junction,CAR,0.0,Mon,5.01,🟠 HIGH,362,Jalahalli — Road Segment
600,12.959270248275862,77.65696959310344,29,3.7586206896551726,109.0,23,0,0.2413793103448276,0.1724137931034483,No Junction,SCOOTER,0.0,Mon,5.01,🟠 HIGH,363,Jeevanbheemanagar — Road Segment
576,12.922236472,77.6104673,25,4.9,122.5,21,1,0.16,0.2,No Junction,MAXI-CAB,0.0,Tue,5.0,🟠 HIGH,364,Mico Layout — Road Segment
623,12.998542560526316,77.68842738684211,38,3.013157894736842,114.5,21,3,0.2368421052631578,0.1052631578947368,No Junction,CAR,0.0,Thu,5.0,🟠 HIGH,365,Mahadevapura — Road Segment
613,12.983567721428573,77.6798205,28,4.053571428571429,113.5,22,3,0.0,0.1785714285714285,No Junction,PASSENGER AUTO,0.0,Thu,5.0,🟠 HIGH,366,Banaswadi — Road Segment
398,12.9540826,77.59145146,45,2.4444444444444446,110.0,2,1,0.2444444444444444,0.0,BTP103 - Shanti Nagar TTMC,CAR,0.0,Tue,4.99,🟠 HIGH,367,Shanti Nagar TTMC
178,13.026461887179488,77.72052914871794,39,2.3846153846153846,93.0,5,4,0.2307692307692307,0.3846153846153846,No Junction,CAR,0.0,Fri,4.98,🟠 HIGH,368,K.R. Pura — Road Segment
593,12.988345284285714,77.57227683142857,70,2.242857142857143,157.0,22,0,0.1285714285714285,0.2428571428571428,No Junction,SCOOTER,0.0,Mon,4.98,🟠 HIGH,369,Sheshadripuram — Road Segment
301,12.919939396666669,77.58075173,30,2.3333333333333335,70.0,22,2,0.0,0.1333333333333333,"BTP191 - 40th Cross, 4th Main, Jayanagar",SCOOTER,0.0,Wed,4.97,🟠 HIGH,370,"40th Cross, 4th Main, Jayanagar"
66,12.928986436,77.609384332,25,4.78,119.5,6,3,0.28,0.2,No Junction,CAR,0.0,Thu,4.97,🟠 HIGH,371,Mico Layout — Road Segment
236,12.880852268055555,77.64529081805556,72,2.236111111111111,161.0,21,6,0.2777777777777778,0.2361111111111111,No Junction,CAR,0.0,Sun,4.97,🟠 HIGH,372,Electronic City — Road Segment
585,13.04531734,77.54811906666667,15,6.033333333333333,90.5,7,4,0.0,0.8666666666666667,No Junction,CAR,0.0,Fri,4.97,🟠 HIGH,373,Jalahalli — Road Segment
62,12.985360124731182,77.59406941075268,93,2.096774193548387,195.0,1,2,0.2043010752688172,0.032258064516129,BTP166 - Coffee Board Junction,CAR,0.0,Wed,4.96,🟠 HIGH,374,Coffee Board Junction
107,12.99548367075929,77.61037216284329,619,2.0936995153473346,1296.0,21,2,0.2180936995153473,0.0646203554119547,No Junction,CAR,0.0,Wed,4.94,🟠 HIGH,375,Pulikeshinagar(F.Town) — Road Segment
317,12.90791647364228,77.53279480258888,45,4.688888888888889,211.0,0,2,0.1333333333333333,0.0,No Junction,MOPED,0.0,Wed,4.93,🟠 HIGH,376,K.S. Layout — Road Segment
409,12.91052491025641,77.62683390769232,39,2.551282051282051,99.5,6,0,0.2307692307692307,0.2307692307692307,No Junction,CAR,0.0,Mon,4.93,🟠 HIGH,377,HSR Layout — Road Segment
273,13.028329414863954,77.5618905944639,29,3.189655172413793,92.5,23,1,0.2758620689655172,0.2068965517241379,No Junction,CAR,0.0,Tue,4.93,🟠 HIGH,378,Yeshwanthpura — Road Segment
322,12.912563753289474,77.68077985197368,152,2.164473684210526,329.0,4,6,0.6052631578947368,0.125,No Junction,CAR,0.0,Sun,4.93,🟠 HIGH,379,Bellandur — Road Segment
744,13.068124248148148,77.62939568518517,27,4.018518518518518,108.5,23,6,0.3703703703703703,0.1851851851851851,No Junction,CAR,0.0,Sun,4.93,🟠 HIGH,380,Hennuru — Road Segment
610,12.876005676,77.616711854,50,2.3,115.0,6,6,0.46,0.3,No Junction,CAR,0.0,Sun,4.93,🟠 HIGH,381,Hulimavu — Road Segment
133,12.92939044368932,77.58381491067962,103,2.0485436893203883,211.0,6,6,0.6796116504854369,0.0485436893203883,BTP220 - Puttanna Junction,CAR,0.0,Sun,4.92,🟠 HIGH,382,Puttanna Junction
148,13.071650441964286,77.59316342410715,112,2.2410714285714284,251.0,23,0,0.3035714285714285,0.0803571428571428,No Junction,CAR,0.0,Mon,4.92,🟠 HIGH,383,Hebbala — Road Segment
662,13.00569046923077,77.5278075423077,26,4.6923076923076925,122.0,6,1,0.2692307692307692,0.1538461538461538,No Junction,CAR,0.0,Tue,4.92,🟠 HIGH,384,Rajajinagar — Road Segment
288,13.068795291223314,77.59265747195442,197,2.2106598984771573,435.5,5,0,0.3045685279187817,0.0355329949238578,No Junction,CAR,0.0,Mon,4.91,🟠 HIGH,385,Kodigehalli — Road Segment
522,12.917037131034482,77.57940409310343,29,2.431034482758621,70.5,0,2,0.2413793103448276,0.0689655172413793,"BTP176 - Rajalakshmi Kalyana Mantapa, JP Nagar",SCOOTER,0.0,Wed,4.9,🟠 HIGH,386,"Rajalakshmi Kalyana Mantapa, JP Nagar"
421,12.99050222162162,77.61212525405405,111,2.171171171171171,241.0,22,2,0.1351351351351351,0.1711711711711711,No Junction,CAR,0.0,Wed,4.9,🟠 HIGH,387,Pulikeshinagar(F.Town) — Road Segment
310,13.027606721893491,77.58600732366864,169,2.1420118343195265,362.0,3,2,0.2662721893491124,0.1242603550295858,No Junction,CAR,0.0,Wed,4.9,🟠 HIGH,388,R.T. Nagar — Road Segment
413,12.969104703174605,77.58565697460317,63,2.238095238095238,141.0,3,1,0.1111111111111111,0.0,BTP075 - Police Corner,CAR,0.0,Tue,4.89,🟠 HIGH,389,Police Corner
116,12.99932354611457,77.68761998732943,34,3.3088235294117645,112.5,21,1,0.1470588235294117,0.088235294117647,No Junction,CAR,0.0,Tue,4.89,🟠 HIGH,390,Mahadevapura — Road Segment
319,13.037024604054054,77.57457456216217,74,2.216216216216216,164.0,5,4,0.1216216216216216,0.2162162162162162,No Junction,MOTOR CYCLE,0.0,Fri,4.89,🟠 HIGH,391,Kodigehalli — Road Segment
349,12.997118468181815,77.58294365909092,22,4.909090909090909,108.0,4,1,0.2727272727272727,0.0,BTP032 - Windsor Circle,SCOOTER,0.0,Tue,4.88,🟠 HIGH,392,Windsor Circle
758,12.884280545,77.59635929,20,2.8,56.0,7,3,0.05,0.8,No Junction,CAR,0.0,Thu,4.87,🟠 HIGH,393,J.P. Nagar — Road Segment
757,12.993640225,77.71730157500001,24,4.104166666666667,98.5,22,4,0.2083333333333333,0.25,No Junction,CAR,0.0,Fri,4.87,🟠 HIGH,394,Mahadevapura — Road Segment
12,12.916413119,77.651721976,100,2.18,218.0,5,0,0.25,0.18,No Junction,SCOOTER,0.0,Mon,4.87,🟠 HIGH,395,HSR Layout — Road Segment
74,12.952391214285711,77.59075175357142,28,2.2857142857142856,64.0,21,5,0.6071428571428571,0.1785714285714285,BTP121 - KH Circle,CAR,0.0,Sat,4.86,🟠 HIGH,396,KH Circle
351,12.82005938611111,77.687656725,36,6.166666666666667,222.0,3,4,0.1388888888888889,0.0,No Junction,SCOOTER,0.0,Fri,4.86,🟠 HIGH,397,Electronic City — Road Segment
512,12.973249043243245,77.61099812702702,37,2.472972972972973,91.5,1,0,0.3513513513513513,0.2702702702702703,No Junction,SCOOTER,0.0,Mon,4.83,🟠 HIGH,398,Ashok Nagar — Road Segment
356,12.958190206896552,77.57201557586207,29,2.3793103448275863,69.0,2,1,0.1034482758620689,0.0689655172413793,BTP105 - Shivasankara Circle,SCOOTER,0.0,Tue,4.83,🟠 HIGH,399,Shivasankara Circle
466,12.938437939979208,77.5799661936027,82,2.073170731707317,170.0,2,1,0.1951219512195122,0.0365853658536585,"BTP186 - 9th Cross, 4th Main, Jayanagar",CAR,0.0,Tue,4.82,🟠 HIGH,400,"9th Cross, 4th Main, Jayanagar"
530,12.875888883375849,77.54404424067278,35,2.7285714285714286,95.5,5,6,0.6,0.1714285714285714,No Junction,CAR,0.0,Sun,4.81,🟠 HIGH,401,Thalagattapura — Road Segment
492,12.958567697577855,77.66824796574394,289,2.121107266435986,613.0,21,6,0.7681660899653979,0.0622837370242214,No Junction,SCOOTER,0.0,Sun,4.81,🟠 HIGH,402,HAL Old Airport — Road Segment
784,12.963099973913042,77.60125873478262,23,2.3043478260869565,53.0,20,4,0.217391304347826,0.3043478260869565,BTP172 - Nanjappa Circle,SCOOTER,0.0,Fri,4.8,🟠 HIGH,403,Nanjappa Circle
575,12.971164808474576,77.59280167118645,59,2.0847457627118646,123.0,21,5,0.864406779661017,0.0847457627118644,BTP063 - Siddalingaiah Circle,CAR,0.0,Sat,4.79,🟠 HIGH,404,Siddalingaiah Circle
749,12.998340068181818,77.67173627272727,22,3.4545454545454546,76.0,19,5,0.5909090909090909,0.3636363636363636,No Junction,CAR,0.0,Sat,4.79,🟠 HIGH,405,Banaswadi — Road Segment
368,12.965166612280704,77.57924389473685,57,2.087719298245614,119.0,4,1,0.3157894736842105,0.087719298245614,BTP082 - KR Market Junction,PASSENGER AUTO,0.0,Tue,4.79,🟠 HIGH,406,KR Market Junction
357,12.978224734375,77.553216484375,32,2.1875,70.0,6,1,0.25,0.1875,"BTP062 - Basava Mantapa, Dr. Rajkumar Road",SCOOTER,0.0,Tue,4.78,🟠 HIGH,407,"Basava Mantapa, Dr. Rajkumar Road"
673,12.960983375,77.55094744642858,28,2.2142857142857144,62.0,22,3,0.1071428571428571,0.2142857142857142,"BTP093 - Toll Gate, Mysore Road",CAR,0.0,Thu,4.74,🟠 HIGH,408,"Toll Gate, Mysore Road"
679,12.953335089285714,77.58371533928572,28,2.2142857142857144,62.0,5,1,0.25,0.2142857142857142,BTP120 - Lalbagh Main Gate Junction,CAR,0.0,Tue,4.74,🟠 HIGH,409,Lalbagh Main Gate Junction
519,12.968580797222224,77.70107210555555,36,4.972222222222222,179.0,3,1,0.1666666666666666,0.0,No Junction,SCOOTER,0.0,Tue,4.73,🟠 HIGH,410,HAL Old Airport — Road Segment
355,12.924224439690043,77.67324754761977,73,2.2054794520547945,161.0,6,4,0.0821917808219178,0.1643835616438356,No Junction,CAR,0.0,Fri,4.71,🟠 HIGH,411,Bellandur — Road Segment
448,12.980976443105025,77.58861952241504,71,2.112676056338028,150.0,1,2,0.1690140845070422,0.0140845070422535,BTP052 - CID Carlton House Junction,CAR,0.0,Wed,4.7,🟠 HIGH,412,CID Carlton House Junction
851,12.969378025,77.60244521875,16,4.09375,65.5,2,3,0.0625,0.125,"BTP099 - Cash Pharmacy, Residency Road",CAR,0.0,Thu,4.7,🟠 HIGH,413,"Cash Pharmacy, Residency Road"
722,12.924328745,77.60937511,20,5.5,110.0,21,1,0.5,0.2,No Junction,MAXI-CAB,0.0,Tue,4.69,🟠 HIGH,414,Mico Layout — Road Segment
768,13.06778309473684,77.58032464736841,19,3.3421052631578947,63.5,8,4,0.0526315789473684,0.5263157894736842,No Junction,CAR,0.0,Fri,4.69,🟠 HIGH,415,Kodigehalli — Road Segment
145,13.054967438709678,77.50761416559139,93,2.161290322580645,201.0,5,3,0.3225806451612903,0.1612903225806451,No Junction,CAR,0.0,Thu,4.68,🟠 HIGH,416,Chikkabanavara — Road Segment
438,12.968109595555555,77.58686942888889,45,2.2888888888888888,103.0,2,2,0.1333333333333333,0.0,BTP075 - Police Corner,PASSENGER AUTO,0.0,Wed,4.67,🟠 HIGH,417,Police Corner
164,12.996069987,77.617007623,100,2.23,223.0,3,3,0.3,0.05,No Junction,CAR,0.0,Thu,4.67,🟠 HIGH,418,Pulikeshinagar(F.Town) — Road Segment
259,12.93799975924632,77.57692127255724,158,2.037974683544304,322.0,0,0,0.3037974683544304,0.0,BTP216 - Yediyur Junction,CAR,0.0,Mon,4.66,🟠 HIGH,419,Yediyur Junction
104,12.906387542424245,77.57346725151515,33,2.242424242424242,74.0,0,3,0.4242424242424242,0.0606060606060606,"BTP159 - JP Nagar Metro, ORR",PASSENGER AUTO,0.0,Thu,4.66,🟠 HIGH,420,"JP Nagar Metro, ORR"
511,12.980647595454544,77.594035525,44,2.136363636363636,94.0,2,5,0.25,0.0681818181818181,BTP036 - Police Thimmaiah Circle (GPO),CAR,0.0,Sat,4.64,🟠 HIGH,421,Police Thimmaiah Circle (GPO)
163,12.999532946808513,77.48871673404255,47,2.276595744680851,107.0,6,4,0.2127659574468085,0.2127659574468085,No Junction,SCOOTER,0.0,Fri,4.63,🟠 HIGH,422,Kamakshipalya — Road Segment
223,12.985447194130844,77.47989199666667,39,2.3333333333333335,91.0,6,4,0.1282051282051282,0.2564102564102564,No Junction,CAR,0.0,Fri,4.63,🟠 HIGH,423,Kamakshipalya — Road Segment
709,12.956942863617453,77.699113774959,29,2.7241379310344827,79.0,6,0,0.0,0.2068965517241379,No Junction,SCOOTER,0.0,Mon,4.63,🟠 HIGH,424,HAL Old Airport — Road Segment
237,12.889861381705275,77.63975277591848,87,2.1724137931034484,189.0,21,6,0.3563218390804598,0.1379310344827586,No Junction,CAR,0.0,Sun,4.63,🟠 HIGH,425,HSR Layout — Road Segment
395,12.901606989473684,77.66052715526315,38,2.3421052631578947,89.0,6,3,0.3157894736842105,0.2631578947368421,No Junction,SCOOTER,0.0,Thu,4.63,🟠 HIGH,426,Bellandur — Road Segment
240,12.941656385828262,77.56710424195849,430,2.077906976744186,893.5,22,3,0.3023255813953488,0.0325581395348837,No Junction,CAR,0.0,Thu,4.63,🟠 HIGH,427,Basavanagudi — Road Segment
564,13.00235672173913,77.54967226521738,23,2.260869565217391,52.0,1,3,0.1739130434782608,0.2608695652173913,"BTP026 - 1st Block Junction, Rajajinagar",SCOOTER,0.0,Thu,4.61,🟠 HIGH,428,"1st Block Junction, Rajajinagar"
868,12.959965360000002,77.5321733,15,2.933333333333333,44.0,0,2,0.0,0.3333333333333333,BTP017 - Attiguppe Circle,SCOOTER,0.0,Wed,4.61,🟠 HIGH,429,Attiguppe Circle
157,12.962003413654616,77.59602519196787,249,2.0,498.0,22,2,0.0160642570281124,0.0,"BTP101 - Blood Bank Circle, KH Road",SCOOTER,0.0,Wed,4.6,🟠 HIGH,430,"Blood Bank Circle, KH Road"
751,12.913456072222225,77.58581016666668,18,2.388888888888889,43.0,9,4,0.0,0.3888888888888889,"BTP197 - 9th Cross, 24th Main, JP Nagar",CAR,0.0,Fri,4.6,🟠 HIGH,431,"9th Cross, 24th Main, JP Nagar"
390,12.97373118012048,77.60935364277108,166,2.1144578313253013,351.0,4,6,0.7228915662650602,0.0783132530120482,No Junction,CAR,0.0,Sun,4.6,🟠 HIGH,432,Ashok Nagar — Road Segment
81,12.911223479730667,77.48027347953989,33,2.8181818181818183,93.0,0,4,0.3939393939393939,0.0909090909090909,No Junction,CAR,0.0,Fri,4.6,🟠 HIGH,433,Kengeri — Road Segment
333,12.991950875301203,77.58997838313253,166,2.1927710843373496,364.0,23,4,0.0542168674698795,0.0120481927710843,No Junction,SCOOTER,0.0,Fri,4.6,🟠 HIGH,434,High ground — Road Segment
713,12.957171576923075,77.56892611153846,26,2.8076923076923075,73.0,4,6,0.3846153846153846,0.0,BTP217 - Baleyele Junction,SCOOTER,0.0,Sun,4.59,🟠 HIGH,435,Baleyele Junction
756,12.956527473333333,77.74522906,15,4.533333333333333,68.0,7,2,0.3333333333333333,0.7333333333333333,No Junction,CAR,0.0,Wed,4.59,🟠 HIGH,436,Whitefield — Road Segment
234,12.914322642621393,77.48135074669092,49,2.5918367346938775,127.0,23,2,0.2653061224489796,0.0204081632653061,No Junction,CAR,0.0,Wed,4.59,🟠 HIGH,437,Kengeri — Road Segment
759,12.92220279175258,77.58069601752577,97,2.0412371134020617,198.0,23,5,0.6082474226804123,0.0103092783505154,"BTP190 - 36th Cross, 4th Main, Jayanagar",SCOOTER,0.0,Sat,4.59,🟠 HIGH,438,"36th Cross, 4th Main, Jayanagar"
549,12.956825923214286,77.57515501696427,112,2.0089285714285716,225.0,21,1,0.1517857142857142,0.0089285714285714,BTP105 - Shivasankara Circle,SCOOTER,0.0,Tue,4.59,🟠 HIGH,439,Shivasankara Circle
745,12.981644458620693,77.58832163793103,29,2.2758620689655173,66.0,2,2,0.2068965517241379,0.0689655172413793,BTP052 - CID Carlton House Junction,CAR,0.0,Wed,4.59,🟠 HIGH,440,CID Carlton House Junction
729,12.9170235,77.58587216,20,2.85,57.0,0,4,0.2,0.05,"BTP177 - Aurobindo Circle, ORR",CAR,0.0,Fri,4.58,🟠 HIGH,441,"Aurobindo Circle, ORR"
658,13.014810147619048,77.53088251428572,21,2.738095238095238,57.5,20,0,0.1428571428571428,0.5238095238095238,No Junction,CAR,0.0,Mon,4.57,🟠 HIGH,442,Rajajinagar — Road Segment
13,12.996316711153844,77.56314304903846,520,2.044230769230769,1063.0,4,2,0.2576923076923076,0.0384615384615384,No Junction,SCOOTER,0.0,Wed,4.56,🟠 HIGH,443,Sheshadripuram — Road Segment
130,13.083623576666668,77.63701835666667,30,2.6666666666666665,80.0,22,6,0.4666666666666667,0.1666666666666666,No Junction,SCOOTER,0.0,Sun,4.55,🟠 HIGH,444,Hennuru — Road Segment
326,13.191939051351351,77.68090851621622,37,2.297297297297298,85.0,23,4,0.2702702702702703,0.2972972972972973,No Junction,CAR,0.0,Fri,4.55,🟠 HIGH,445,Devanahalli Airport — Road Segment
815,12.986506510000002,77.57974298500001,20,2.5,50.0,22,6,0.5,0.15,BTP054 - Shivananda Circle,SCOOTER,0.0,Sun,4.54,🟠 HIGH,446,Shivananda Circle
459,13.00059879090909,77.61490079772727,44,2.272727272727273,100.0,5,2,0.3863636363636363,0.2272727272727272,No Junction,SCOOTER,0.0,Wed,4.54,🟠 HIGH,447,Pulikeshinagar(F.Town) — Road Segment
392,13.055065618181818,77.53463033090908,55,2.2181818181818183,122.0,5,2,0.2545454545454545,0.1636363636363636,No Junction,SCOOTER,0.0,Wed,4.53,🟠 HIGH,448,Jalahalli — Road Segment
706,12.920926539130434,77.60078900869566,23,2.3043478260869565,53.0,6,6,0.5217391304347826,0.1739130434782608,BTP128 - Gorappanapalya Junction,SCOOTER,0.0,Sun,4.53,🟠 HIGH,449,Gorappanapalya Junction
798,12.990894201751534,77.6877229270917,26,3.807692307692307,99.0,0,6,0.9230769230769232,0.0769230769230769,No Junction,SCOOTER,0.0,Sun,4.53,🟠 HIGH,450,Mahadevapura — Road Segment
463,12.887470221052633,77.73848478421053,19,7.184210526315789,136.5,23,6,0.3157894736842105,0.1578947368421052,No Junction,PASSENGER AUTO,0.0,Sun,4.52,🟠 HIGH,451,No Police Station — Road Segment
684,12.99748604,77.69276751333334,15,3.0,45.0,19,5,0.8666666666666667,1.0,No Junction,MOTOR CYCLE,0.0,Sat,4.51,🟠 HIGH,452,Mahadevapura — Road Segment
149,12.931803046428572,77.61381991785713,28,2.1785714285714284,61.0,22,4,0.2142857142857142,0.1785714285714285,BTP140 - Madiwala Check Post,PASSENGER AUTO,0.0,Fri,4.51,🟠 HIGH,453,Madiwala Check Post
561,12.984039159786056,77.64071757022256,31,4.870967741935484,151.0,22,2,0.032258064516129,0.0,No Junction,CAR,0.0,Wed,4.49,🟠 HIGH,454,Jeevanbheemanagar — Road Segment
566,12.968874042857143,77.57021359523809,21,3.5952380952380953,75.5,2,2,0.3809523809523809,0.238095238095238,No Junction,SCOOTER,0.0,Wed,4.48,🟠 HIGH,455,Chamarajpet — Road Segment
507,13.01880442,77.59222896,40,2.25,90.0,23,1,0.025,0.25,No Junction,SCOOTER,0.0,Tue,4.45,🟠 HIGH,456,R.T. Nagar — Road Segment
732,12.94867466,77.535840735,20,3.75,75.0,21,4,0.45,0.25,No Junction,PASSENGER AUTO,0.0,Fri,4.45,🟠 HIGH,457,Byatarayanapura — Road Segment
141,12.98015780432961,77.6140061928771,716,2.03072625698324,1454.0,4,6,0.5139664804469274,0.0181564245810055,No Junction,CAR,0.0,Sun,4.45,🟠 HIGH,458,Shivajinagar — Road Segment
779,12.990743966666669,77.60522422000001,15,5.5,82.5,7,2,0.2666666666666666,0.4666666666666667,No Junction,CAR,0.0,Wed,4.44,🟠 HIGH,459,Pulikeshinagar(F.Town) — Road Segment
206,12.943299788235294,77.74977441764706,17,2.764705882352941,47.0,7,4,0.4117647058823529,0.7647058823529411,No Junction,CAR,0.0,Fri,4.44,🟠 HIGH,460,Whitefield — Road Segment
347,12.91634224520548,77.63811780684931,73,2.164383561643836,158.0,21,5,0.4657534246575342,0.1232876712328767,No Junction,CAR,0.0,Sat,4.44,🟠 HIGH,461,HSR Layout — Road Segment
422,12.96974688594019,77.74991943342324,24,3.3333333333333335,80.0,5,1,0.25,0.125,No Junction,CAR,0.0,Tue,4.43,🟠 HIGH,462,Whitefield — Road Segment
400,13.24493845,77.7130189375,64,2.5,160.0,4,4,0.234375,0.0,No Junction,CAR,0.0,Fri,4.43,🟠 HIGH,463,Devanahalli Airport — Road Segment
335,12.972345584210526,77.62604559561403,114,2.1491228070175437,245.0,22,1,0.2807017543859649,0.043859649122807,No Junction,CAR,0.0,Tue,4.43,🟠 HIGH,464,Halasur — Road Segment
308,12.966813696,77.65852355199999,25,4.56,114.0,2,3,0.0,0.04,No Junction,CAR,0.0,Thu,4.43,🟠 HIGH,465,Jeevanbheemanagar — Road Segment
442,12.975816822222225,77.62623502592594,27,6.62962962962963,179.0,2,6,0.6296296296296297,0.0,No Junction,CAR,0.0,Sun,4.42,🟠 HIGH,466,Halasur — Road Segment
810,12.9553719125,77.5919787,16,2.625,42.0,5,0,0.375,0.25,"BTP102 - BMTC Junction, KH Road",CAR,0.0,Mon,4.41,🟠 HIGH,467,"BMTC Junction, KH Road"
399,12.91700245263158,77.62915876842105,19,3.236842105263158,61.5,23,5,0.4210526315789473,0.3684210526315789,No Junction,SCOOTER,0.0,Sat,4.41,🟠 HIGH,468,Madiwala — Road Segment
246,12.982698026923078,77.60146875,52,2.1538461538461537,112.0,3,2,0.3846153846153846,0.0,BTP211 - Central Street Junction,SCOOTER,0.0,Wed,4.41,🟠 HIGH,469,Central Street Junction
39,12.962929836666666,77.589877335,60,2.066666666666667,124.0,23,2,0.2666666666666666,0.0166666666666666,BTP064 - Devanga Hostel Junction,CAR,0.0,Wed,4.41,🟠 HIGH,470,Devanga Hostel Junction
262,12.9767633625,77.54868871458334,48,2.0625,99.0,6,4,0.3958333333333333,0.0625,BTP069 - MC Circle,LORRY/GOODS VEHICLE,0.0,Fri,4.4,🟠 HIGH,471,MC Circle
346,13.009374106741571,77.69305326404495,89,2.1235955056179776,189.0,2,5,0.4157303370786517,0.1235955056179775,No Junction,MOTOR CYCLE,0.0,Sat,4.4,🟠 HIGH,472,K.R. Pura — Road Segment
375,12.95464494950495,77.59315088019801,101,2.0297029702970297,205.0,3,5,0.3663366336633663,0.0,"BTP102 - BMTC Junction, KH Road",CAR,0.0,Sat,4.39,🟠 HIGH,473,"BMTC Junction, KH Road"
299,12.991842223943662,77.59439171408451,71,2.140845070422535,152.0,2,2,0.1267605633802817,0.1408450704225352,No Junction,SCOOTER,0.0,Wed,4.37,🟠 HIGH,474,High ground — Road Segment
541,12.915458739999998,77.69866942799999,25,2.48,62.0,3,5,0.6,0.36,No Junction,MOTOR CYCLE,0.0,Sat,4.36,🟠 HIGH,475,Bellandur — Road Segment
699,13.038232568421051,77.51817351578947,19,4.421052631578948,84.0,3,3,0.0526315789473684,0.2105263157894736,No Junction,CAR,0.0,Thu,4.36,🟠 HIGH,476,Peenya — Road Segment
516,12.99511360625,77.6161899,16,4.34375,69.5,5,3,0.3125,0.4375,No Junction,CAR,0.0,Thu,4.36,🟠 HIGH,477,Pulikeshinagar(F.Town) — Road Segment
203,12.875462515,77.67053351,20,2.65,53.0,7,3,0.2,0.5,No Junction,CAR,0.0,Thu,4.36,🟠 HIGH,478,Electronic City — Road Segment
253,13.099652728571428,77.588657544,175,2.0942857142857143,366.5,6,6,0.5028571428571429,0.0342857142857142,No Junction,SCOOTER,0.0,Sun,4.36,🟠 HIGH,479,Yelahanka — Road Segment
659,12.924181011764706,77.58595134705882,17,5.0,85.0,2,6,0.3529411764705882,0.0,"BTP226 - 33rd Cross, 11th Main, Jayanagar",CAR,0.0,Sun,4.35,🟠 HIGH,480,"33rd Cross, 11th Main, Jayanagar"
451,13.04067510886076,77.58979217341772,79,2.1392405063291138,169.0,2,5,0.4936708860759494,0.1012658227848101,No Junction,SCOOTER,0.0,Sat,4.34,🟠 HIGH,481,Hebbala — Road Segment
608,13.043540391048865,77.59045372631992,16,3.3125,53.0,20,1,0.0,0.5625,No Junction,PASSENGER AUTO,0.0,Tue,4.34,🟠 HIGH,482,Kodigehalli — Road Segment
42,13.053895601973684,77.59276812697368,152,2.0789473684210527,316.0,6,5,0.756578947368421,0.0592105263157894,No Junction,SCOOTER,0.0,Sat,4.34,🟠 HIGH,483,Kodigehalli — Road Segment
863,12.96020995,77.554246275,16,6.4375,103.0,21,4,0.0,0.0,BTP092 - Bangalore Builders Junction,PASSENGER AUTO,0.0,Fri,4.33,🟠 HIGH,484,Bangalore Builders Junction
497,12.933330393103448,77.61522972068965,29,2.1379310344827585,62.0,5,1,0.1379310344827586,0.1379310344827586,BTP140 - Madiwala Check Post,MOTOR CYCLE,0.0,Tue,4.33,🟠 HIGH,485,Madiwala Check Post
329,12.94024245138889,77.57300043194444,144,2.0,288.0,23,3,0.1597222222222222,0.0,BTP109 - Dewan Madhava Rao Junction,SCOOTER,0.0,Thu,4.33,🟠 HIGH,486,Dewan Madhava Rao Junction
747,12.97817109387755,77.64166832244898,49,2.6122448979591835,128.0,0,5,0.3877551020408163,0.0,No Junction,SCOOTER,0.0,Sat,4.32,🟠 HIGH,487,Jeevanbheemanagar — Road Segment
154,13.0585253,77.4664227457143,35,2.342857142857143,82.0,5,3,0.2,0.1714285714285714,No Junction,CAR,0.0,Thu,4.31,🟠 HIGH,488,No Police Station — Road Segment
634,13.00989165263158,77.50615011578948,19,3.0,57.0,2,2,0.2631578947368421,0.3684210526315789,No Junction,PASSENGER AUTO,0.0,Wed,4.3,🟠 HIGH,489,Peenya — Road Segment
781,12.986813496153845,77.60848991153847,26,2.730769230769231,71.0,21,0,0.3076923076923077,0.1538461538461538,No Junction,SCOOTER,0.0,Mon,4.3,🟠 HIGH,490,Pulikeshinagar(F.Town) — Road Segment
750,12.992621775757575,77.65173555151515,33,2.757575757575758,91.0,1,2,0.0,0.0303030303030303,No Junction,SCOOTER,0.0,Wed,4.29,🟠 HIGH,491,Banaswadi — Road Segment
269,12.958726382244873,77.6495459234375,64,2.140625,137.0,23,5,0.609375,0.140625,No Junction,SCOOTER,0.0,Sat,4.29,🟠 HIGH,492,Jeevanbheemanagar — Road Segment
531,12.875454893023257,77.59550115813953,43,2.2093023255813953,95.0,22,2,0.3720930232558139,0.2093023255813953,No Junction,SCOOTER,0.0,Wed,4.29,🟠 HIGH,493,Hulimavu — Road Segment
468,12.960008475757576,77.58746160606061,33,2.1818181818181817,72.0,22,0,0.0909090909090909,0.0303030303030303,BTP180 - Swagath Poornima Theatre,CAR,0.0,Mon,4.29,🟠 HIGH,494,Swagath Poornima Theatre
584,12.988966274468083,77.60890865106383,47,2.617021276595745,123.0,6,5,0.574468085106383,0.0,No Junction,SCOOTER,0.0,Sat,4.28,🟠 HIGH,495,Pulikeshinagar(F.Town) — Road Segment
367,12.98589671875,77.58852836875,16,2.375,38.0,2,1,0.0625,0.375,"BTP033 - Sophia High School, Sankey Road",CAR,0.0,Tue,4.27,🟠 HIGH,496,"Sophia High School, Sankey Road"
25,12.875900930555556,77.67139652777777,36,3.0,108.0,6,1,0.0555555555555555,0.0,No Junction,SCOOTER,0.0,Tue,4.25,🟠 HIGH,497,Electronic City — Road Segment
197,12.997307161363636,77.5684300118182,220,2.040909090909091,449.0,5,4,0.4272727272727272,0.0409090909090909,No Junction,CAR,0.0,Fri,4.25,🟠 HIGH,498,Malleshwaram — Road Segment
378,13.004200836994617,77.75694498495278,44,2.4318181818181817,107.0,4,3,0.3863636363636363,0.0227272727272727,No Junction,CAR,0.0,Thu,4.23,🟠 HIGH,499,Mahadevapura — Road Segment
635,13.060833845454544,77.46116179696969,33,2.4545454545454546,81.0,23,5,0.5151515151515151,0.0909090909090909,No Junction,CAR,0.0,Sat,4.22,🟠 HIGH,500,No Police Station — Road Segment
180,12.965842496875,77.5818171546875,64,2.015625,129.0,0,4,0.53125,0.015625,"BTP080 - NR Road, SP Road Junction",PASSENGER AUTO,0.0,Fri,4.22,🟠 HIGH,501,"NR Road, SP Road Junction"
377,12.969702222,77.700463982,50,2.52,126.0,2,2,0.36,0.0,No Junction,CAR,0.0,Wed,4.22,🟠 HIGH,502,HAL Old Airport — Road Segment
524,12.874157881818183,77.54087755909092,22,2.7954545454545454,61.5,1,0,0.1818181818181818,0.2272727272727272,No Junction,CAR,0.0,Mon,4.22,🟠 HIGH,503,Thalagattapura — Road Segment
136,12.989298359900989,77.50059714207922,202,2.0742574257425743,419.0,5,0,0.1881188118811881,0.0148514851485148,No Junction,SCOOTER,0.0,Mon,4.22,🟠 HIGH,504,Kamakshipalya — Road Segment
663,12.931724679411763,77.68477730000001,34,2.3823529411764706,81.0,0,6,0.4117647058823529,0.1176470588235294,No Junction,CAR,0.0,Sun,4.22,🟠 HIGH,505,HAL Old Airport — Road Segment
272,13.034946334482758,77.62461779655173,377,2.018567639257294,761.0,21,5,0.4376657824933687,0.0185676392572944,No Junction,CAR,0.0,Sat,4.21,🟠 HIGH,506,K.G. Halli — Road Segment
632,12.993428652173913,77.6087708652174,46,2.380434782608696,109.5,21,4,0.391304347826087,0.0217391304347826,No Junction,SCOOTER,0.0,Fri,4.21,🟠 HIGH,507,Pulikeshinagar(F.Town) — Road Segment
698,12.954009992307691,77.57222016923077,26,2.1538461538461537,56.0,21,1,0.2692307692307692,0.1538461538461538,BTP106 - VV Puram College,CAR,0.0,Tue,4.2,🟠 HIGH,508,VV Puram College
786,12.980366395652174,77.69473446956522,23,9.521739130434783,219.0,2,3,0.0,0.0,No Junction,MAXI-CAB,0.0,Thu,4.2,🟠 HIGH,509,Mahadevapura — Road Segment
664,12.89704347142857,77.63529947142858,21,2.4761904761904763,52.0,9,1,0.238095238095238,0.4761904761904761,No Junction,CAR,0.0,Tue,4.2,🟠 HIGH,510,HSR Layout — Road Segment
266,12.960659547368422,77.57175116842105,19,2.263157894736842,43.0,3,3,0.0,0.2631578947368421,BTP212 - Minto Junction,SCOOTER,0.0,Thu,4.19,🟠 HIGH,511,Minto Junction
505,12.974013510344829,77.50906018275862,58,2.1379310344827585,124.0,21,5,0.3793103448275862,0.1379310344827586,No Junction,CAR,0.0,Sat,4.18,🟠 HIGH,512,Jnanabharathi — Road Segment
716,12.988816697297295,77.57557956486487,37,2.216216216216216,82.0,3,1,0.0,0.2162162162162162,No Junction,SCOOTER,0.0,Tue,4.17,🟠 HIGH,513,Sheshadripuram — Road Segment
529,12.928389313333334,77.59726634,15,7.933333333333334,119.0,4,4,0.0,0.0,"BTP127 - Sagar Hospital, Jayanagar",CAR,0.0,Fri,4.16,🟠 HIGH,514,"Sagar Hospital, Jayanagar"
38,12.968856642592591,77.58080251851852,108,2.0,216.0,3,6,0.3888888888888889,0.0,BTP038 - Mysore Bank Junction,SCOOTER,0.0,Sun,4.16,🟠 HIGH,515,Mysore Bank Junction
449,12.96728125,77.58169794999999,18,2.2777777777777777,41.0,0,2,0.2777777777777778,0.2777777777777778,"BTP080 - NR Road, SP Road Junction",GOODS AUTO,0.0,Wed,4.15,🟠 HIGH,516,"NR Road, SP Road Junction"
401,12.973555526168225,77.58279565420561,107,2.0,214.0,23,2,0.2242990654205607,0.0,BTP038 - Mysore Bank Junction,PASSENGER AUTO,0.0,Wed,4.15,🟠 HIGH,517,Mysore Bank Junction
232,12.88175226625,77.59585130625001,80,2.1,168.0,1,6,0.35,0.1,No Junction,SCOOTER,0.0,Sun,4.15,🟠 HIGH,518,J.P. Nagar — Road Segment
188,12.966969231818185,77.54734344772727,44,2.1818181818181817,96.0,22,3,0.25,0.1818181818181818,No Junction,SCOOTER,0.0,Thu,4.15,🟠 HIGH,519,Magadi Road — Road Segment
489,12.975157595150815,77.69760250523842,21,4.571428571428571,96.0,0,6,0.6666666666666666,0.0476190476190476,No Junction,CAR,0.0,Sun,4.14,🟠 HIGH,520,Mahadevapura — Road Segment
703,12.992245866666668,77.71736292,15,2.8,42.0,8,5,0.7333333333333333,0.8,No Junction,MOTOR CYCLE,0.0,Sat,4.14,🟠 HIGH,521,Mahadevapura — Road Segment
391,12.975632360869566,77.55616712608696,23,2.3043478260869565,53.0,21,5,0.4782608695652174,0.0434782608695652,BTP071 - Prasanna Junction,SCOOTER,0.0,Sat,4.12,🟠 HIGH,522,Prasanna Junction
820,13.034663020000002,77.73392812,15,5.666666666666667,85.0,21,6,1.0,0.2666666666666666,No Junction,MOTOR CYCLE,0.0,Sun,4.12,🟠 HIGH,523,K.R. Pura — Road Segment
691,12.988583031578948,77.47277393157894,19,2.8684210526315788,54.5,20,5,0.3684210526315789,0.3157894736842105,No Junction,SCOOTER,0.0,Sat,4.12,🟠 HIGH,524,Kamakshipalya — Road Segment
655,12.870408122727271,77.65733840454546,22,3.9545454545454546,87.0,5,3,0.0454545454545454,0.0454545454545454,No Junction,CAR,0.0,Thu,4.11,🟠 HIGH,525,Electronic City — Road Segment
622,12.92585681764706,77.6172136882353,17,2.2941176470588234,39.0,5,3,0.2352941176470588,0.2941176470588235,BTP138 - Sarjapur Road Check Post,CAR,0.0,Thu,4.1,🟠 HIGH,526,Sarjapur Road Check Post
120,12.927639532142855,77.63329901428571,28,3.678571428571429,103.0,2,5,0.5714285714285714,0.0,No Junction,CAR,0.0,Sat,4.09,🟠 HIGH,527,Adugodi — Road Segment
570,12.955709243478262,77.72089669130435,23,2.652173913043478,61.0,22,0,0.217391304347826,0.1739130434782608,No Junction,CAR,0.0,Mon,4.08,🟠 HIGH,528,Whitefield — Road Segment
587,12.945737594444443,77.5871045388889,18,2.5555555555555554,46.0,20,5,0.6666666666666666,0.5555555555555556,No Junction,CAR,0.0,Sat,4.07,🟠 HIGH,529,Wilson Garden — Road Segment
812,12.98848795882353,77.6027898764706,17,2.588235294117647,44.0,7,4,0.2352941176470588,0.5882352941176471,No Junction,SCOOTER,0.0,Fri,4.05,🟠 HIGH,530,Shivajinagar — Road Segment
271,13.050460467916668,77.52553170416667,240,2.0166666666666666,484.0,5,1,0.0791666666666666,0.0166666666666666,No Junction,SCOOTER,0.0,Tue,4.05,🟠 HIGH,531,Jalahalli — Road Segment
345,12.9422411390625,77.6223850453125,64,2.203125,141.0,23,6,0.5,0.015625,No Junction,CAR,0.0,Sun,4.04,🟠 HIGH,532,Adugodi — Road Segment
427,13.001893955357144,77.56933568928571,112,2.080357142857143,233.0,1,6,0.2678571428571428,0.0267857142857142,No Junction,PASSENGER AUTO,0.0,Sun,4.03,🟠 HIGH,533,Malleshwaram — Road Segment
366,12.979363473076925,77.75136613076923,26,2.3076923076923075,60.0,20,5,0.6538461538461539,0.3076923076923077,No Junction,CAR,0.0,Sat,4.03,🟠 HIGH,534,Whitefield — Road Segment
639,12.987079235416669,77.5599586125,48,2.0208333333333335,97.0,5,6,0.4583333333333333,0.0208333333333333,"BTP015 - Suguna Hospital, Dr. Rajkumar Road",CAR,0.0,Sun,4.02,🟠 HIGH,535,"Suguna Hospital, Dr. Rajkumar Road"
303,13.044925486666669,77.62675185333335,15,2.7333333333333334,41.0,8,3,0.0,0.7333333333333333,No Junction,SCOOTER,0.0,Thu,4.01,🟠 HIGH,536,Hennuru — Road Segment
56,12.889707329787235,77.56335795744681,47,2.1702127659574466,102.0,3,5,0.4468085106382978,0.1063829787234042,No Junction,SCOOTER,0.0,Sat,4.0,🟠 HIGH,537,K.S. Layout — Road Segment
565,13.002395395,77.553300315,20,2.2,44.0,2,3,0.2,0.2,"BTP001 - 10th Cross, Dr. Rajkumar Road",MOTOR CYCLE,0.0,Thu,3.99,🟡 MEDIUM,538,"10th Cross, Dr. Rajkumar Road"
336,13.02695578148148,77.54394551481481,27,2.574074074074074,69.5,6,6,0.5555555555555556,0.074074074074074,No Junction,CAR,0.0,Sun,3.98,🟡 MEDIUM,539,Yeshwanthpura — Road Segment
26,13.010765704166666,77.50674338750001,24,2.5416666666666665,61.0,6,1,0.25,0.1666666666666666,No Junction,PASSENGER AUTO,0.0,Tue,3.98,🟡 MEDIUM,540,Peenya — Road Segment
174,12.937990360865296,77.55727810621772,21,3.0952380952380953,65.0,5,6,0.7142857142857143,0.0952380952380952,No Junction,CAR,0.0,Sun,3.97,🟡 MEDIUM,541,Basavanagudi — Road Segment
645,13.005426264285717,77.55408600714286,14,3.142857142857143,44.0,0,2,0.2857142857142857,0.0714285714285714,"BTP001 - 10th Cross, Dr. Rajkumar Road",CAR,0.0,Wed,3.97,🟡 MEDIUM,542,"10th Cross, Dr. Rajkumar Road"
657,12.975534625051155,77.55396421071069,30,2.1333333333333333,64.0,0,3,0.2666666666666666,0.0333333333333333,BTP071 - Prasanna Junction,SCOOTER,0.0,Thu,3.97,🟡 MEDIUM,543,Prasanna Junction
862,12.922918693333337,77.61909186666666,15,2.533333333333333,38.0,4,0,0.1333333333333333,0.2,BTP137 - Madiwala Traffic PS Junction,CAR,0.0,Mon,3.96,🟡 MEDIUM,544,Madiwala Traffic PS Junction
418,12.964277510434783,77.54253260434783,115,2.0695652173913044,238.0,22,3,0.1217391304347826,0.017391304347826,No Junction,SCOOTER,0.0,Thu,3.95,🟡 MEDIUM,545,Vijayanagara — Road Segment
523,13.12221190909091,77.61064905909092,22,2.363636363636364,52.0,22,4,0.1363636363636363,0.3636363636363636,No Junction,CAR,0.0,Fri,3.95,🟡 MEDIUM,546,Yelahanka — Road Segment
646,12.966986852380952,77.60041713333332,21,2.238095238095238,47.0,0,1,0.3333333333333333,0.0952380952380952,"BTP099 - Cash Pharmacy, Residency Road",CAR,0.0,Tue,3.95,🟡 MEDIUM,547,"Cash Pharmacy, Residency Road"
791,12.9062120375,77.59323126875,16,2.5,40.0,0,4,0.3125,0.125,BTP222 - Delmia Circle,CAR,0.0,Fri,3.95,🟡 MEDIUM,548,Delmia Circle
433,13.175530910526316,77.63548555263158,19,3.631578947368421,69.0,5,0,0.1052631578947368,0.1052631578947368,No Junction,CAR,0.0,Mon,3.94,🟡 MEDIUM,549,Chikkajala — Road Segment
649,12.999325227777778,77.583838,36,2.3194444444444446,83.5,3,3,0.0,0.0555555555555555,No Junction,MOPED,0.0,Thu,3.94,🟡 MEDIUM,550,Sadashivanagar — Road Segment
405,13.00714895652174,77.69797597826087,23,4.608695652173913,106.0,6,4,0.0,0.0,No Junction,SCOOTER,0.0,Fri,3.93,🟡 MEDIUM,551,K.R. Pura — Road Segment
190,12.919558335849056,77.64508539622642,53,2.1132075471698113,112.0,23,1,0.1509433962264151,0.1132075471698113,No Junction,CAR,0.0,Tue,3.92,🟡 MEDIUM,552,HSR Layout — Road Segment
257,12.999331814673914,77.62486418152173,184,2.0706521739130435,381.0,21,3,0.0380434782608695,0.0,No Junction,CAR,0.0,Thu,3.92,🟡 MEDIUM,553,Pulikeshinagar(F.Town) — Road Segment
535,12.97501874032258,77.60415116451613,62,2.096774193548387,130.0,6,2,0.3709677419354839,0.0967741935483871,No Junction,SCOOTER,0.0,Wed,3.92,🟡 MEDIUM,554,Cubbon Park — Road Segment
